$GPGSA,A,3,22,18,21,06,03,,,,,,,,6.3,3.4,5.3*39
$GPRMC,235310.000,A,4003.9028,N,10512.5771,W,0.77,41.65,141112,,*20
$GPGGA,235311.000,4003.9062,N,10512.5757,W,1,06,2.3,1563.7,M,-20.7,M,,0000*5D
$GPGSA,A,3,22,18,21,06,03,15,,,,,,,3.7,2.3,2.9*37
$GPGSV,3,1,11,18,72,012,35,21,64,126,33,22,50,283,42,06,37,275,36*7B
$GPGSV,3,2,11,15,28,047,24,03,28,292,30,09,28,095,,24,27,095,27*75
$GPGSV,3,3,11,14,33,205,36,19,17,317,31,48,35,219,40*43
$GPRMC,235311.000,A,4003.9062,N,10512.5757,W,0.79,320.94,141112,,*1F
$GPGGA,235312.000,4003.9036,N,10512.5774,W,1,06,2.3,1567.2,M,-20.7,M,,0000*5F
$GPGSA,A,3,22,18,21,06,03,15,,,,,,,3.7,2.3,2.9*37
$GPRMC,235312.000,A,4003.9036,N,10512.5774,W,0.61,282.07,141112,,*16
$GPGGA,235313.000,4003.9037,N,10512.5779,W,1,07,2.7,1569.3,M,-20.7,M,,0000*58
$GPGSA,A,3,22,18,21,06,03,09,24,,,,,,3.3,2.7,1.9*3F
$GPRMC,235313.000,A,4003.9037,N,10512.5779,W,0.05,195.57,141112,,*19
$GPGGA,235314.000,4003.9042,N,10512.5787,W,1,08,1.6,1574.6,M,-20.7,M,,0000*58
$GPGSA,A,3,22,18,21,06,03,09,24,15,,,,,2.5,1.6,1.9*3E
$GPRMC,235314.000,A,4003.9042,N,10512.5787,W,0.18,183.19,141112,,*1C
$GPGGA,235315.000,4003.9040,N,10512.5793,W,1,08,1.6,1576.2,M,-20.7,M,,0000*58
$GPGSA,A,3,22,18,21,06,03,09,24,15,,,,,2.5,1.6,1.9*3E
$GPRMC,235315.000,A,4003.9040,N,10512.5793,W,0.20,179.86,141112,,*12
$GPGGA,235316.000,4003.9040,N,10512.5792,W,1,08,1.6,1576.3,M,-20.7,M,,0000*5B
$GPGSA,A,3,22,18,21,06,03,09,24,15,,,,,2.5,1.6,1.9*3E
$GPGSV,3,1,11,18,72,012,43,21,64,126,38,22,50,283,43,06,37,275,37*71
$GPGSV,3,2,11,14,33,205,44,15,28,047,24,03,28,292,31,09,28,095,36*79
$GPGSV,3,3,11,24,27,095,37,19,17,317,43,48,35,219,43*49
$GPRMC,235316.000,A,4003.9040,N,10512.5792,W,0.09,144.75,141112,,*19
$GPGGA,235317.000,4003.9039,N,10512.5793,W,1,08,1.6,1576.9,M,-20.7,M,,0000*5F
$GPGSA,A,3,22,18,21,06,03,09,24,15,,,,,2.5,1.6,1.9*3E
$GPRMC,235317.000,A,4003.9039,N,10512.5793,W,0.05,127.62,141112,,*18
$GPGGA,235318.000,4003.9039,N,10512.5793,W,1,08,1.6,1577.4,M,-20.7,M,,0000*5C
$GPGSA,A,3,22,18,21,06,03,09,24,15,,,,,2.5,1.6,1.9*3E
$GPRMC,235318.000,A,4003.9039,N,10512.5793,W,0.16,177.48,141112,,*18
$GPGGA,235319.000,4003.9038,N,10512.5794,W,1,08,1.6,1577.7,M,-20.7,M,,0000*58
$GPGSA,A,3,22,18,21,06,03,09,24,15,,,,,2.5,1.6,1.9*3E
$GPRMC,235319.000,A,4003.9038,N,10512.5794,W,0.23,185.80,141112,,*10
$GPGGA,235320.000,4003.9037,N,10512.5795,W,1,08,1.6,1578.0,M,-20.7,M,,0000*54
$GPGSA,A,3,22,18,21,06,03,09,24,15,,,,,2.5,1.6,1.9*3E
$GPRMC,235320.000,A,4003.9037,N,10512.5795,W,0.20,177.11,141112,,*12
$GPGGA,235321.000,4003.9036,N,10512.5794,W,1,08,1.6,1578.0,M,-20.7,M,,0000*55
$GPGSA,A,3,22,18,21,06,03,09,24,15,,,,,2.5,1.6,1.9*3E
$GPGSV,3,1,11,18,72,012,43,21,64,126,38,22,50,283,43,06,37,275,38*7E
$GPGSV,3,2,11,14,33,205,44,15,28,047,24,03,28,292,32,09,28,095,36*7A
$GPGSV,3,3,11,24,27,095,37,19,17,317,43,48,35,219,42*48
$GPRMC,235321.000,A,4003.9036,N,10512.5794,W,0.07,138.15,141112,,*19
$GPGGA,235322.000,4003.9035,N,10512.5795,W,1,08,1.6,1578.4,M,-20.7,M,,0000*50
$GPGSA,A,3,22,18,21,06,03,09,24,15,,,,,2.5,1.6,1.9*3E
$GPRMC,235322.000,A,4003.9035,N,10512.5795,W,0.21,182.66,141112,,*19
$GPGGA,235323.000,4003.9034,N,10512.5796,W,1,08,1.6,1578.9,M,-20.7,M,,0000*5E
$GPGSA,A,3,22,18,21,06,03,09,24,15,,,,,2.5,1.6,1.9*3E
$GPRMC,235323.000,A,4003.9034,N,10512.5796,W,0.09,164.49,141112,,*15
$GPGGA,235324.000,4003.9033,N,10512.5796,W,1,08,1.6,1579.2,M,-20.7,M,,0000*54
$GPGSA,A,3,22,18,21,06,03,09,24,15,,,,,2.5,1.6,1.9*3E
$GPRMC,235324.000,A,4003.9033,N,10512.5796,W,0.07,158.91,141112,,*11
$GPGGA,235325.000,4003.9033,N,10512.5796,W,1,08,1.6,1579.5,M,-20.7,M,,0000*52
$GPGSA,A,3,22,18,21,06,03,09,24,15,,,,,2.5,1.6,1.9*3E
$GPRMC,235325.000,A,4003.9033,N,10512.5796,W,0.12,32.59,141112,,*2D
$GPGGA,235326.000,4003.9033,N,10512.5797,W,1,08,1.6,1579.8,M,-20.7,M,,0000*5D
$GPGSA,A,3,22,18,21,06,03,09,24,15,,,,,2.5,1.6,1.9*3E
$GPGSV,3,1,11,18,72,012,43,21,64,126,38,22,50,283,43,06,37,275,38*7E
$GPGSV,3,2,11,14,33,205,45,15,28,047,24,03,28,292,32,09,28,095,36*7B
$GPGSV,3,3,11,24,27,095,37,19,17,317,43,48,35,219,42*48
$GPRMC,235326.000,A,4003.9033,N,10512.5797,W,0.03,93.00,141112,,*28
$GPGGA,235327.000,4003.9032,N,10512.5797,W,1,08,1.6,1580.1,M,-20.7,M,,0000*52
$GPGSA,A,3,22,18,21,06,03,09,24,15,,,,,2.5,1.6,1.9*3E
$GPRMC,235327.000,A,4003.9032,N,10512.5797,W,0.05,145.62,141112,,*10
$GPGGA,235328.000,4003.9031,N,10512.5797,W,1,08,1.6,1580.3,M,-20.7,M,,0000*5C
$GPGSA,A,3,22,18,21,06,03,09,24,15,,,,,2.5,1.6,1.9*3E
$GPRMC,235328.000,A,4003.9031,N,10512.5797,W,0.04,141.43,141112,,*1A
$GPGGA,235329.000,4003.9031,N,10512.5797,W,1,08,1.6,1580.5,M,-20.7,M,,0000*5B
$GPGSA,A,3,22,18,21,06,03,09,24,15,,,,,2.5,1.6,1.9*3E
$GPRMC,235329.000,A,4003.9031,N,10512.5797,W,0.04,139.44,141112,,*13
$GPGGA,235330.000,4003.9030,N,10512.5798,W,1,08,1.6,1580.7,M,-20.7,M,,0000*5F
$GPGSA,A,3,22,18,21,06,03,09,24,15,,,,,2.5,1.6,1.9*3E
$GPRMC,235330.000,A,4003.9030,N,10512.5798,W,0.04,160.35,141112,,*1F
$GPGGA,235331.000,4003.9030,N,10512.5798,W,1,08,1.6,1580.9,M,-20.7,M,,0000*50
$GPGSA,A,3,22,18,21,06,03,09,24,15,,,,,2.5,1.6,1.9*3E
$GPGSV,3,1,11,18,72,012,43,21,64,126,38,22,50,283,44,06,37,275,38*79
$GPGSV,3,2,11,14,33,205,45,15,28,047,30,03,28,292,32,09,28,095,37*7F
$GPGSV,3,3,11,24,27,095,37,19,17,317,43,48,35,219,42*48
$GPRMC,235331.000,A,4003.9030,N,10512.5798,W,0.03,134.33,141112,,*1E
$GPGGA,235332.000,4003.9028,N,10512.5798,W,1,10,1.0,1580.9,M,-20.7,M,,0000*55
$GPGSA,A,3,22,18,21,06,14,03,09,24,19,15,,,1.9,1.0,1.6*35
$GPRMC,235332.000,A,4003.9028,N,10512.5798,W,0.04,47.50,141112,,*23
$GPGGA,235333.000,4003.9027,N,10512.5799,W,1,10,1.0,1580.9,M,-20.7,M,,0000*5A
$GPGSA,A,3,22,18,21,06,14,03,09,24,19,15,,,1.9,1.0,1.6*35
$GPRMC,235333.000,A,4003.9027,N,10512.5799,W,0.05,28.15,141112,,*25
$GPGGA,235334.000,4003.9027,N,10512.5799,W,1,10,1.0,1580.9,M,-20.7,M,,0000*5D
$GPGSA,A,3,22,18,21,06,14,03,09,24,19,15,,,1.9,1.0,1.6*35
$GPRMC,235334.000,A,4003.9027,N,10512.5799,W,0.04,37.78,141112,,*26
$GPGGA,235335.000,4003.9027,N,10512.5800,W,1,10,1.0,1580.9,M,-20.7,M,,0000*53
$GPGSA,A,3,22,18,21,06,14,03,09,24,19,15,,,1.9,1.0,1.6*35
$GPRMC,235335.000,A,4003.9027,N,10512.5800,W,0.04,45.42,141112,,*24
$GPGGA,235336.000,4003.9026,N,10512.5800,W,1,10,1.0,1580.9,M,-20.7,M,,0000*51
$GPGSA,A,3,22,18,21,06,14,03,09,24,19,15,,,1.9,1.0,1.6*35
$GPGSV,3,1,11,18,72,013,42,21,64,126,38,22,50,283,44,06,37,275,38*79
$GPGSV,3,2,11,14,33,205,45,15,28,047,31,09,28,095,37,03,28,291,32*7D
$GPGSV,3,3,11,24,27,095,37,19,17,317,43,48,35,219,43*49
$GPRMC,235336.000,A,4003.9026,N,10512.5800,W,0.05,21.33,141112,,*23
$GPGGA,235337.000,4003.9026,N,10512.5800,W,1,10,1.0,1580.9,M,-20.7,M,,0000*50
$GPGSA,A,3,22,18,21,06,14,03,09,24,19,15,,,1.9,1.0,1.6*35
$GPRMC,235337.000,A,4003.9026,N,10512.5800,W,0.06,32.90,141112,,*2A
$GPGGA,235338.000,4003.9026,N,10512.5801,W,1,10,1.0,1581.0,M,-20.7,M,,0000*56
$GPGSA,A,3,22,18,21,06,14,03,09,24,19,15,,,1.9,1.0,1.6*35
$GPRMC,235338.000,A,4003.9026,N,10512.5801,W,0.05,35.39,141112,,*23
$GPGGA,235339.000,4003.9026,N,10512.5801,W,1,10,1.0,1581.0,M,-20.7,M,,0000*57
$GPGSA,A,3,22,18,21,06,14,03,09,24,19,15,,,1.9,1.0,1.6*35
$GPRMC,235339.000,A,4003.9026,N,10512.5801,W,0.04,38.33,141112,,*24
$GPGGA,235340.000,4003.9026,N,10512.5801,W,1,10,1.0,1581.0,M,-20.7,M,,0000*59
$GPGSA,A,3,22,18,21,06,14,03,09,24,19,15,,,1.9,1.0,1.6*35
$GPRMC,235340.000,A,4003.9026,N,10512.5801,W,0.05,39.01,141112,,*2B
$GPGGA,235341.000,4003.9026,N,10512.5801,W,1,10,1.0,1581.0,M,-20.7,M,,0000*58
$GPGSA,A,3,22,18,21,06,14,03,09,24,19,15,,,1.9,1.0,1.6*35
$GPGSV,3,1,11,18,72,013,42,21,64,126,38,22,50,283,44,06,37,275,38*79
$GPGSV,3,2,11,14,33,205,45,09,28,094,37,03,28,291,33,15,28,047,31*7D
$GPGSV,3,3,11,24,27,095,37,19,17,317,43,48,35,219,43*49
$GPRMC,235341.000,A,4003.9026,N,10512.5801,W,0.07,41.79,141112,,*28
$GPGGA,235342.000,4003.9026,N,10512.5801,W,1,10,1.0,1581.0,M,-20.7,M,,0000*5B
$GPGSA,A,3,22,18,21,06,14,03,09,24,19,15,,,1.9,1.0,1.6*35
$GPRMC,235342.000,A,4003.9026,N,10512.5801,W,0.06,40.29,141112,,*2E
$GPGGA,235343.000,4003.9026,N,10512.5801,W,1,10,1.0,1581.0,M,-20.7,M,,0000*5A
$GPGSA,A,3,22,18,21,06,14,03,09,24,19,15,,,1.9,1.0,1.6*35
$GPRMC,235343.000,A,4003.9026,N,10512.5801,W,0.06,52.09,141112,,*2E
$GPGGA,235344.000,4003.9026,N,10512.5801,W,1,10,1.0,1581.0,M,-20.7,M,,0000*5D
$GPGSA,A,3,22,18,21,06,14,03,09,24,19,15,,,1.9,1.0,1.6*35
$GPRMC,235344.000,A,4003.9026,N,10512.5801,W,0.04,58.12,141112,,*2B
$GPGGA,235345.000,4003.9026,N,10512.5801,W,1,10,1.0,1581.0,M,-20.7,M,,0000*5C
$GPGSA,A,3,22,18,21,06,14,03,09,24,19,15,,,1.9,1.0,1.6*35
$GPRMC,235345.000,A,4003.9026,N,10512.5801,W,0.07,40.54,141112,,*22
$GPGGA,235346.000,4003.9026,N,10512.5801,W,1,10,1.0,1581.1,M,-20.7,M,,0000*5E
$GPGSA,A,3,22,18,21,06,14,03,09,24,19,15,,,1.9,1.0,1.6*35
$GPGSV,3,1,11,18,72,013,42,21,64,126,38,22,50,283,44,06,37,275,38*79
$GPGSV,3,2,11,14,33,205,45,09,28,094,36,03,28,291,33,15,28,047,31*7C
$GPGSV,3,3,11,24,27,095,37,19,17,317,43,48,35,219,43*49
$GPRMC,235346.000,A,4003.9026,N,10512.5801,W,0.06,42.63,141112,,*26
$GPGGA,235347.000,4003.9026,N,10512.5801,W,1,10,1.0,1581.1,M,-20.7,M,,0000*5F
$GPGSA,A,3,22,18,21,06,14,03,09,24,19,15,,,1.9,1.0,1.6*35
$GPRMC,235347.000,A,4003.9026,N,10512.5801,W,0.05,52.31,141112,,*22
$GPGGA,235348.000,4003.9026,N,10512.5801,W,1,10,1.0,1581.1,M,-20.7,M,,0000*50
$GPGSA,A,3,22,18,21,06,14,03,09,24,19,15,,,1.9,1.0,1.6*35
$GPRMC,235348.000,A,4003.9026,N,10512.5801,W,0.06,51.55,141112,,*2F
$GPGGA,235349.000,4003.9026,N,10512.5801,W,1,10,1.0,1581.1,M,-20.7,M,,0000*51
$GPGSA,A,3,22,18,21,06,14,03,09,24,19,15,,,1.9,1.0,1.6*35
$GPRMC,235349.000,A,4003.9026,N,10512.5801,W,0.07,52.45,141112,,*2D
$GPGGA,235350.000,4003.9026,N,10512.5801,W,1,10,1.0,1581.1,M,-20.7,M,,0000*59
$GPGSA,A,3,22,18,21,06,14,03,09,24,19,15,,,1.9,1.0,1.6*35
$GPRMC,235350.000,A,4003.9026,N,10512.5801,W,0.06,45.53,141112,,*25
$GPGGA,235351.000,4003.9027,N,10512.5801,W,1,10,1.0,1581.1,M,-20.7,M,,0000*59
$GPGSA,A,3,22,18,21,06,14,03,09,24,19,15,,,1.9,1.0,1.6*35
$GPGSV,3,1,11,18,72,013,42,21,64,126,39,22,50,283,44,06,37,275,37*77
$GPGSV,3,2,11,14,33,205,45,09,28,094,37,03,28,291,33,15,28,047,30*7C
$GPGSV,3,3,11,24,27,095,36,19,17,317,43,48,35,219,43*48
$GPRMC,235351.000,A,4003.9027,N,10512.5801,W,0.06,45.79,141112,,*2D
$GPGGA,235352.000,4003.9027,N,10512.5801,W,1,10,1.0,1581.1,M,-20.7,M,,0000*5A
$GPGSA,A,3,22,18,21,06,14,03,09,24,19,15,,,1.9,1.0,1.6*35
$GPRMC,235352.000,A,4003.9027,N,10512.5801,W,0.07,54.93,141112,,*2B
$GPGGA,235353.000,4003.9027,N,10512.5802,W,1,10,1.0,1581.2,M,-20.7,M,,0000*5B
$GPGSA,A,3,22,18,21,06,14,03,09,24,19,15,,,1.9,1.0,1.6*35
$GPRMC,235353.000,A,4003.9027,N,10512.5802,W,0.06,41.44,141112,,*26
$GPGGA,235354.000,4003.9027,N,10512.5802,W,1,10,1.0,1581.2,M,-20.7,M,,0000*5C
$GPGSA,A,3,22,18,21,06,14,03,09,24,19,15,,,1.9,1.0,1.6*35
$GPRMC,235354.000,A,4003.9027,N,10512.5802,W,0.07,55.79,141112,,*2B
$GPGGA,235355.000,4003.9027,N,10512.5801,W,1,10,1.0,1581.2,M,-20.7,M,,0000*5E
$GPGSA,A,3,22,18,21,06,14,03,09,24,19,15,,,1.9,1.0,1.6*35
$GPRMC,235355.000,A,4003.9027,N,10512.5801,W,0.06,52.37,141112,,*25
$GPGGA,235356.000,4003.9027,N,10512.5801,W,1,10,1.0,1581.2,M,-20.7,M,,0000*5D
$GPGSA,A,3,22,18,21,06,14,03,09,24,19,15,,,1.9,1.0,1.6*35
$GPGSV,3,1,11,18,72,013,42,21,64,126,38,22,50,283,44,06,37,275,37*76
$GPGSV,3,2,11,14,33,205,45,09,28,094,37,03,28,291,33,15,28,047,31*7D
$GPGSV,3,3,11,24,27,095,36,19,17,317,43,48,35,219,43*48
$GPRMC,235356.000,A,4003.9027,N,10512.5801,W,0.07,43.92,141112,,*28
$GPGGA,235357.000,4003.9027,N,10512.5801,W,1,10,1.0,1581.2,M,-20.7,M,,0000*5C
$GPGSA,A,3,22,18,21,06,14,03,09,24,19,15,,,1.9,1.0,1.6*35
$GPRMC,235357.000,A,4003.9027,N,10512.5801,W,0.06,49.98,141112,,*28
$GPGGA,235358.000,4003.9027,N,10512.5801,W,1,10,1.0,1581.2,M,-20.7,M,,0000*53
$GPGSA,A,3,22,18,21,06,14,03,09,24,19,15,,,1.9,1.0,1.6*35
$GPRMC,235358.000,A,4003.9027,N,10512.5801,W,0.05,50.18,141112,,*24
$GPGGA,235359.000,4003.9027,N,10512.5801,W,2,10,1.0,1581.2,M,-20.7,M,,0000*51
$GPGSA,A,3,22,18,21,06,14,03,09,24,19,15,,,1.9,1.0,1.6*35
$GPRMC,235359.000,A,4003.9027,N,10512.5801,W,0.06,70.19,141112,,*25
$GPGGA,235400.000,4003.9027,N,10512.5801,W,2,10,1.0,1581.2,M,-20.7,M,,0000*5A
$GPGSA,A,3,22,18,21,06,14,03,09,24,19,15,,,1.9,1.0,1.6*35
$GPRMC,235400.000,A,4003.9027,N,10512.5801,W,0.08,42.17,141112,,*2F
$GPGGA,235401.000,4003.9027,N,10512.5801,W,2,10,1.0,1581.2,M,-20.7,M,,0000*5B
$GPGSA,A,3,22,18,21,06,14,03,09,24,19,15,,,1.9,1.0,1.6*35
$GPGSV,3,1,11,18,72,013,42,21,64,126,38,22,50,283,44,06,37,275,37*76
$GPGSV,3,2,11,14,33,205,45,09,28,094,37,03,28,291,33,15,28,047,30*7C
$GPGSV,3,3,11,24,27,095,36,19,17,317,42,48,35,219,43*49
$GPRMC,235401.000,A,4003.9027,N,10512.5801,W,0.08,34.27,141112,,*2C
$GPGGA,235402.000,4003.9027,N,10512.5801,W,2,10,1.0,1581.2,M,-20.7,M,,0000*58
$GPGSA,A,3,22,18,21,06,14,03,09,24,19,15,,,1.9,1.0,1.6*35
$GPRMC,235402.000,A,4003.9027,N,10512.5801,W,0.08,47.20,141112,,*2C
$GPGGA,235403.000,4003.9027,N,10512.5801,W,2,10,1.0,1581.2,M,-20.7,M,1.8,0000*7E
$GPGSA,A,3,22,18,21,06,14,03,09,24,19,15,,,1.9,1.0,1.6*35
$GPRMC,235403.000,A,4003.9027,N,10512.5801,W,0.09,48.42,141112,,*27
$GPGGA,235404.000,4003.9027,N,10512.5801,W,2,10,1.0,1581.1,M,-20.7,M,2.8,0000*79
$GPGSA,A,3,22,18,21,06,14,03,09,24,19,15,,,1.9,1.0,1.6*35
$GPRMC,235404.000,A,4003.9027,N,10512.5801,W,0.09,54.38,141112,,*20
$GPGGA,235405.000,4003.9027,N,10512.5801,W,2,10,1.0,1581.1,M,-20.7,M,,0000*5C
$GPGSA,A,3,22,18,21,06,14,03,09,24,19,15,,,1.9,1.0,1.6*35
$GPRMC,235405.000,A,4003.9027,N,10512.5801,W,0.09,58.33,141112,,*26
$GPGGA,235406.000,4003.9027,N,10512.5800,W,2,10,1.0,1581.2,M,-20.7,M,,0000*5D
$GPGSA,A,3,22,18,21,06,14,03,09,24,19,15,,,1.9,1.0,1.6*35
$GPGSV,3,1,11,18,72,013,43,21,64,126,39,22,50,284,44,06,37,274,38*7F
$GPGSV,3,2,11,14,33,205,45,09,28,094,37,03,28,291,33,15,28,047,29*74
$GPGSV,3,3,11,24,27,095,35,19,17,317,42,48,35,219,43*4A
$GPRMC,235406.000,A,4003.9027,N,10512.5800,W,0.42,88.40,141112,,*22
$GPGGA,235407.000,4003.9027,N,10512.5799,W,2,10,1.0,1581.2,M,-20.7,M,,0000*53
$GPGSA,A,3,22,18,21,06,14,03,09,24,19,15,,,1.9,1.0,1.6*35
$GPRMC,235407.000,A,4003.9027,N,10512.5799,W,0.18,101.93,141112,,*1D
$GPGGA,235408.000,4003.9027,N,10512.5799,W,2,10,1.0,1581.1,M,-20.7,M,1.8,0000*78
$GPGSA,A,3,22,18,21,06,14,03,09,24,19,15,,,1.9,1.0,1.6*35
$GPRMC,235408.000,A,4003.9027,N,10512.5799,W,0.13,161.85,141112,,*18
$GPGGA,235409.000,4003.9028,N,10512.5798,W,2,10,1.0,1581.0,M,-20.7,M,2.8,0000*75
$GPGSA,A,3,22,18,21,06,14,03,09,24,19,15,,,1.9,1.0,1.6*35
$GPRMC,235409.000,A,4003.9028,N,10512.5798,W,0.42,13.15,141112,,*2E
$GPGGA,235410.000,4003.9029,N,10512.5797,W,2,10,1.0,1580.9,M,-20.7,M,,0000*5F
$GPGSA,A,3,22,18,21,06,14,03,09,24,19,15,,,1.9,1.0,1.6*35
$GPRMC,235410.000,A,4003.9029,N,10512.5797,W,0.12,39.31,141112,,*23
$GPGGA,235411.000,4003.9030,N,10512.5796,W,2,10,1.0,1580.9,M,-20.7,M,,0000*57
$GPGSA,A,3,22,18,21,06,14,03,09,24,19,15,,,1.9,1.0,1.6*35
$GPGSV,3,1,11,18,72,014,35,21,63,126,30,22,50,284,45,06,37,274,32*7C
$GPGSV,3,2,11,14,33,205,31,09,28,094,34,03,28,291,22,15,28,047,25*78
$GPGSV,3,3,11,24,27,095,31,19,17,317,32,48,35,219,37*4A
$GPRMC,235411.000,A,4003.9030,N,10512.5796,W,0.11,34.39,141112,,*2D
$GPGGA,235412.000,4003.9030,N,10512.5796,W,2,10,1.0,1580.9,M,-20.7,M,,0000*54
$GPGSA,A,3,22,18,21,06,14,03,09,24,19,15,,,1.9,1.0,1.6*35
$GPRMC,235412.000,A,4003.9030,N,10512.5796,W,0.18,35.67,141112,,*2D
$GPGGA,235413.000,4003.9030,N,10512.5796,W,2,09,1.0,1580.9,M,-20.7,M,,0000*5D
$GPGSA,A,3,22,18,21,06,14,09,24,19,15,,,,1.9,1.0,1.7*37
$GPRMC,235413.000,A,4003.9030,N,10512.5796,W,0.10,35.92,141112,,*2E
$GPGGA,235414.000,4003.9030,N,10512.5795,W,2,09,1.0,1580.6,M,-20.7,M,1.8,0000*71
$GPGSA,A,3,22,18,21,06,14,09,24,19,15,,,,1.9,1.0,1.7*37
$GPRMC,235414.000,A,4003.9030,N,10512.5795,W,0.22,145.72,141112,,*13
$GPGGA,235415.000,4003.9029,N,10512.5795,W,2,09,1.0,1580.5,M,-20.7,M,2.8,0000*78
$GPGSA,A,3,22,18,21,06,14,09,24,19,15,,,,1.9,1.0,1.7*37
$GPRMC,235415.000,A,4003.9029,N,10512.5795,W,0.11,187.77,141112,,*11
$GPGGA,235416.000,4003.9029,N,10512.5796,W,2,09,1.0,1580.3,M,-20.7,M,,0000*5A
$GPGSA,A,3,22,18,21,06,14,09,24,19,15,,,,1.9,1.0,1.7*37
$GPGSV,3,1,11,18,72,014,36,21,63,126,31,22,50,284,44,06,37,274,40*7A
$GPGSV,3,2,11,14,33,205,37,09,28,094,31,03,28,291,,15,27,047,24*75
$GPGSV,3,3,11,24,27,095,29,19,17,317,32,48,35,219,40*43
$GPRMC,235416.000,A,4003.9029,N,10512.5796,W,0.17,345.46,141112,,*19
$GPGGA,235417.000,4003.9029,N,10512.5796,W,2,10,1.0,1580.1,M,-20.7,M,,0000*51
$GPGSA,A,3,22,18,21,06,14,03,09,24,19,15,,,1.9,1.0,1.6*35
$GPRMC,235417.000,A,4003.9029,N,10512.5796,W,0.05,50.82,141112,,*24
$GPGGA,235418.000,4003.9029,N,10512.5797,W,2,09,1.0,1580.4,M,-20.7,M,,0000*52
$GPGSA,A,3,22,18,21,06,14,03,09,19,15,,,,2.0,1.0,1.7*38
$GPRMC,235418.000,A,4003.9029,N,10512.5797,W,0.49,252.33,141112,,*18
$GPGGA,235419.000,4003.9029,N,10512.5797,W,2,10,1.0,1580.2,M,-20.7,M,,0000*5D
$GPGSA,A,3,22,18,21,06,14,03,09,24,19,15,,,1.9,1.0,1.6*35
$GPRMC,235419.000,A,4003.9029,N,10512.5797,W,0.12,141.76,141112,,*17
$GPGGA,235420.000,4003.9029,N,10512.5799,W,2,10,1.0,1580.4,M,-20.7,M,,0000*5F
$GPGSA,A,3,22,18,21,06,14,03,09,24,19,15,,,1.9,1.0,1.6*35
$GPRMC,235420.000,A,4003.9029,N,10512.5799,W,0.01,136.11,141112,,*10
$GPGGA,235421.000,4003.9030,N,10512.5800,W,2,09,1.0,1580.7,M,-20.7,M,1.8,0000*75
$GPGSA,A,3,22,18,21,06,14,09,24,19,15,,,,1.9,1.0,1.7*37
$GPGSV,3,1,11,18,72,014,42,21,63,126,40,22,50,284,44,06,37,274,36*7E
$GPGSV,3,2,11,14,33,205,38,09,28,094,34,03,28,291,,15,27,047,29*72
$GPGSV,3,3,11,24,27,095,36,19,17,317,39,48,35,219,42*44
$GPRMC,235421.000,A,4003.9030,N,10512.5800,W,0.58,86.01,141112,,*21
$GPGGA,235422.000,4003.9030,N,10512.5796,W,2,10,1.0,1580.8,M,-20.7,M,0.8,0000*70
$GPGSA,A,3,22,18,21,06,14,03,09,24,19,15,,,1.9,1.0,1.6*35
$GPRMC,235422.000,A,4003.9030,N,10512.5796,W,1.44,85.53,141112,,*2A
$GPGGA,235423.000,4003.9031,N,10512.5789,W,2,10,1.0,1580.8,M,-20.7,M,0.8,0000*7E
$GPGSA,A,3,22,18,21,06,14,03,09,24,19,15,,,1.9,1.0,1.6*35
$GPRMC,235423.000,A,4003.9031,N,10512.5789,W,2.26,85.39,141112,,*2F
$GPGGA,235424.000,4003.9031,N,10512.5779,W,2,10,1.0,1581.3,M,-20.7,M,0.8,0000*7C
$GPGSA,A,3,22,18,21,06,14,03,09,24,19,15,,,1.9,1.0,1.6*35
$GPRMC,235424.000,A,4003.9031,N,10512.5779,W,3.44,96.74,141112,,*29
$GPGGA,235425.000,4003.9031,N,10512.5767,W,2,10,1.0,1581.2,M,-20.7,M,0.8,0000*73
$GPGSA,A,3,22,18,21,06,14,03,09,24,19,15,,,1.9,1.0,1.6*35
$GPRMC,235425.000,A,4003.9031,N,10512.5767,W,3.20,88.49,141112,,*24
$GPGGA,235426.000,4003.9031,N,10512.5756,W,2,10,1.0,1580.9,M,-20.7,M,0.8,0000*78
$GPGSA,A,3,22,18,21,06,14,03,09,24,19,15,,,1.9,1.0,1.6*35
$GPGSV,3,1,11,18,72,014,43,21,63,126,41,22,50,284,38,06,37,274,39*7A
$GPGSV,3,2,11,14,33,205,44,09,28,094,34,03,28,291,42,15,27,047,34*73
$GPGSV,3,3,11,24,27,095,33,19,17,317,44,48,35,219,45*4C
$GPRMC,235426.000,A,4003.9031,N,10512.5756,W,2.77,96.20,141112,,*26
$GPGGA,235427.000,4003.9030,N,10512.5749,W,2,10,1.0,1580.6,M,-20.7,M,1.8,0000*78
$GPGSA,A,3,22,18,21,06,14,03,09,24,19,15,,,1.9,1.0,1.6*35
$GPRMC,235427.000,A,4003.9030,N,10512.5749,W,1.47,110.66,141112,,*15
$GPGGA,235428.000,4003.9029,N,10512.5745,W,2,10,1.0,1580.4,M,-20.7,M,2.8,0000*72
$GPGSA,A,3,22,18,21,06,14,03,09,24,19,15,,,1.9,1.0,1.6*35
$GPRMC,235428.000,A,4003.9029,N,10512.5745,W,0.20,113.51,141112,,*19
$GPGGA,235429.000,4003.9031,N,10512.5746,W,2,10,1.0,1580.2,M,-20.7,M,0.8,0000*7D
$GPGSA,A,3,22,18,21,06,14,03,09,24,19,15,,,1.9,1.0,1.6*35
$GPRMC,235429.000,A,4003.9031,N,10512.5746,W,1.17,334.91,141112,,*1C
$GPGGA,235430.000,4003.9038,N,10512.5749,W,2,10,1.0,1580.0,M,-20.7,M,0.8,0000*71
$GPGSA,A,3,22,18,21,06,14,03,09,24,19,15,,,1.9,1.0,1.6*35
$GPRMC,235430.000,A,4003.9038,N,10512.5749,W,3.60,341.52,141112,,*1D
$GPGGA,235431.000,4003.9051,N,10512.5753,W,2,10,1.0,1579.8,M,-20.7,M,0.8,0000*7A
$GPGSA,A,3,22,18,21,06,14,03,09,24,19,15,,,1.9,1.0,1.6*35
$GPGSV,3,1,11,18,72,014,43,21,63,126,36,22,50,284,44,06,37,274,41*7E
$GPGSV,3,2,11,14,33,205,36,09,28,094,32,03,28,291,41,15,27,047,42*72
$GPGSV,3,3,11,24,27,095,32,19,17,317,40,48,35,219,40*4C
$GPRMC,235431.000,A,4003.9051,N,10512.5753,W,5.47,349.55,141112,,*14
$GPGGA,235432.000,4003.9068,N,10512.5757,W,2,10,1.0,1579.6,M,-20.7,M,1.8,0000*78
$GPGSA,A,3,22,18,21,06,14,03,09,24,19,15,,,1.9,1.0,1.6*35
$GPRMC,235432.000,A,4003.9068,N,10512.5757,W,6.85,349.06,141112,,*12
$GPGGA,235433.000,4003.9088,N,10512.5763,W,2,09,1.5,1579.5,M,-20.7,M,2.8,0000*7D
$GPGSA,A,3,22,18,21,06,03,09,24,19,15,,,,2.3,1.5,1.8*32
$GPRMC,235433.000,A,4003.9088,N,10512.5763,W,7.63,344.21,141112,,*1B
$GPGGA,235434.000,4003.9107,N,10512.5774,W,2,10,1.0,1579.3,M,-20.7,M,3.8,0000*70
$GPGSA,A,3,22,18,21,06,14,03,09,24,19,15,,,1.9,1.0,1.6*35
$GPRMC,235434.000,A,4003.9107,N,10512.5774,W,7.30,328.60,141112,,*15
$GPGGA,235435.000,4003.9122,N,10512.5791,W,2,10,1.0,1579.2,M,-20.7,M,0.8,0000*7F
$GPGSA,A,3,22,18,21,06,14,03,09,24,19,15,,,1.9,1.0,1.6*35
$GPRMC,235435.000,A,4003.9122,N,10512.5791,W,7.21,307.00,141112,,*13
$GPGGA,235436.000,4003.9130,N,10512.5814,W,2,10,1.0,1579.1,M,-20.7,M,0.8,0000*7E
$GPGSA,A,3,22,18,21,06,14,03,09,24,19,15,,,1.9,1.0,1.6*35
$GPGSV,3,1,11,18,72,014,43,21,63,126,39,22,50,284,44,06,37,274,41*71
$GPGSV,3,2,11,14,33,205,40,09,28,094,34,03,28,291,41,15,27,047,37*77
$GPGSV,3,3,11,24,27,095,33,19,17,317,43,48,35,219,38*41
$GPRMC,235436.000,A,4003.9130,N,10512.5814,W,6.94,280.83,141112,,*1B
$GPGGA,235437.000,4003.9129,N,10512.5838,W,2,10,1.0,1579.0,M,-20.7,M,1.8,0000*79
$GPGSA,A,3,22,18,21,06,14,03,09,24,19,15,,,1.9,1.0,1.6*35
$GPRMC,235437.000,A,4003.9129,N,10512.5838,W,6.68,251.95,141112,,*14
$GPGGA,235438.000,4003.9118,N,10512.5859,W,2,10,1.0,1579.0,M,-20.7,M,2.8,0000*70
$GPGSA,A,3,22,18,21,06,14,03,09,24,19,15,,,1.9,1.0,1.6*35
$GPRMC,235438.000,A,4003.9118,N,10512.5859,W,7.80,222.12,141112,,*12
$GPGGA,235439.000,4003.9096,N,10512.5874,W,2,10,1.0,1579.1,M,-20.7,M,3.8,0000*79
$GPGSA,A,3,22,18,21,06,14,03,09,24,19,15,,,1.9,1.0,1.6*35
$GPRMC,235439.000,A,4003.9096,N,10512.5874,W,9.86,198.24,141112,,*14
$GPGGA,235440.000,4003.9066,N,10512.5882,W,2,10,1.0,1578.9,M,-20.7,M,4.8,0000*7F
$GPGSA,A,3,22,18,21,06,14,03,09,24,19,15,,,1.9,1.0,1.6*35
$GPRMC,235440.000,A,4003.9066,N,10512.5882,W,11.68,187.33,141112,,*2D
$GPGGA,235441.000,4003.9031,N,10512.5885,W,2,10,1.0,1578.8,M,-20.7,M,5.8,0000*7B
$GPGSA,A,3,22,18,21,06,14,03,09,24,19,15,,,1.9,1.0,1.6*35
$GPGSV,3,1,11,18,72,014,38,21,63,127,28,22,51,284,32,06,37,274,29*72
$GPGSV,3,2,11,14,33,205,32,09,28,094,45,03,28,291,19,24,27,095,43*77
$GPGSV,3,3,11,15,27,047,37,19,17,316,23,48,35,219,28*4E
$GPRMC,235441.000,A,4003.9031,N,10512.5885,W,13.53,181.90,141112,,*2C
$GPGGA,235442.000,4003.8989,N,10512.5886,W,2,09,1.0,1578.6,M,-20.7,M,6.8,0000*75
$GPGSA,A,3,22,18,21,06,14,09,24,19,15,,,,1.9,1.0,1.7*37
$GPRMC,235442.000,A,4003.8989,N,10512.5886,W,14.85,180.38,141112,,*28
$GPGGA,235443.000,4003.8948,N,10512.5887,W,2,08,1.2,1578.5,M,-20.7,M,7.8,0000*79
$GPGSA,A,3,22,18,21,06,14,09,24,15,,,,,2.4,1.2,2.1*36
$GPRMC,235443.000,A,4003.8948,N,10512.5887,W,14.73,181.59,141112,,*2A
$GPGGA,235444.000,4003.8906,N,10512.5888,W,2,08,1.1,1578.4,M,-20.7,M,8.8,0000*76
$GPGSA,A,3,18,21,06,14,03,09,24,15,,,,,2.2,1.1,1.9*3B
$GPRMC,235444.000,A,4003.8906,N,10512.5888,W,14.80,182.36,141112,,*2E
$GPGGA,235445.000,4003.8865,N,10512.5891,W,2,08,1.1,1578.3,M,-20.7,M,9.8,0000*7D
$GPGSA,A,3,18,21,06,14,03,09,24,15,,,,,2.2,1.1,1.9*3B
$GPRMC,235445.000,A,4003.8865,N,10512.5891,W,14.26,182.47,141112,,*29
$GPGGA,235446.000,4003.8826,N,10512.5893,W,2,09,1.0,1578.2,M,-20.7,M,10.8,0000*42
$GPGSA,A,3,22,18,21,06,14,03,09,24,15,,,,2.1,1.0,1.8*38
$GPGSV,3,1,11,18,72,014,38,21,63,127,27,22,51,284,24,06,37,274,23*70
$GPGSV,3,2,11,14,33,205,38,09,28,094,45,03,28,291,13,24,27,095,43*77
$GPGSV,3,3,11,15,27,047,38,19,17,316,,48,35,219,35*4C
$GPRMC,235446.000,A,4003.8826,N,10512.5893,W,13.77,182.39,141112,,*25
$GPGGA,235447.000,4003.8786,N,10512.5894,W,2,09,1.0,1578.2,M,-20.7,M,11.8,0000*40
$GPGSA,A,3,22,18,21,06,14,03,09,24,15,,,,2.1,1.0,1.8*38
$GPRMC,235447.000,A,4003.8786,N,10512.5894,W,13.75,181.34,141112,,*2A
$GPGGA,235448.000,4003.8748,N,10512.5894,W,2,09,1.0,1578.0,M,-20.7,M,12.8,0000*4C
$GPGSA,A,3,22,18,21,06,14,03,09,24,15,,,,2.1,1.0,1.8*38
$GPRMC,235448.000,A,4003.8748,N,10512.5894,W,13.12,180.65,141112,,*23
$GPGGA,235449.000,4003.8711,N,10512.5893,W,2,09,1.0,1577.7,M,-20.7,M,0.8,0000*7D
$GPGSA,A,3,22,18,21,06,14,03,09,24,15,,,,2.1,1.0,1.8*38
$GPRMC,235449.000,A,4003.8711,N,10512.5893,W,12.92,179.56,141112,,*26
$GPGGA,235450.000,4003.8676,N,10512.5892,W,2,09,1.0,1577.6,M,-20.7,M,0.8,0000*75
$GPGSA,A,3,22,18,21,06,14,03,09,24,15,,,,2.1,1.0,1.8*38
$GPRMC,235450.000,A,4003.8676,N,10512.5892,W,12.33,177.75,141112,,*2B
$GPGGA,235451.000,4003.8644,N,10512.5889,W,2,10,1.0,1577.4,M,-20.7,M,0.8,0000*75
$GPGSA,A,3,22,18,21,06,14,03,09,24,19,15,,,1.9,1.0,1.6*35
$GPGSV,3,1,11,18,72,014,38,21,63,127,28,22,51,284,37,06,37,274,41*79
$GPGSV,3,2,11,14,33,205,42,09,28,094,45,03,28,291,30,24,27,095,44*7C
$GPGSV,3,3,11,15,27,047,37,19,17,316,25,48,35,219,34*45
$GPRMC,235451.000,A,4003.8644,N,10512.5889,W,10.46,177.00,141112,,*23
$GPGGA,235452.000,4003.8618,N,10512.5886,W,2,10,1.0,1577.2,M,-20.7,M,1.8,0000*77
$GPGSA,A,3,22,18,21,06,14,03,09,24,19,15,,,1.9,1.0,1.6*35
$GPRMC,235452.000,A,4003.8618,N,10512.5886,W,7.95,177.23,141112,,*1F
$GPGGA,235453.000,4003.8599,N,10512.5886,W,2,09,1.0,1576.8,M,-20.7,M,0.8,0000*7E
$GPGSA,A,3,22,18,06,14,03,09,24,19,15,,,,2.1,1.0,1.9*32
$GPRMC,235453.000,A,4003.8599,N,10512.5886,W,5.78,183.16,141112,,*18
$GPGGA,235454.000,4003.8584,N,10512.5890,W,2,08,1.1,1576.6,M,-20.7,M,0.8,0000*7C
$GPGSA,A,3,22,18,06,14,03,09,24,15,,,,,2.5,1.1,2.3*36
$GPRMC,235454.000,A,4003.8584,N,10512.5890,W,5.54,204.88,141112,,*11
$GPGGA,235455.000,4003.8571,N,10512.5904,W,2,09,1.0,1577.0,M,-20.7,M,0.8,0000*7C
$GPGSA,A,3,22,18,21,06,14,03,09,24,15,,,,2.1,1.0,1.8*38
$GPRMC,235455.000,A,4003.8571,N,10512.5904,W,6.85,232.99,141112,,*1C
$GPGGA,235456.000,4003.8563,N,10512.5931,W,2,10,1.0,1576.5,M,-20.7,M,1.8,0000*77
$GPGSA,A,3,22,18,21,06,14,03,09,24,19,15,,,1.9,1.0,1.6*35
$GPGSV,3,1,11,18,72,014,39,21,63,127,36,22,51,284,45,06,37,274,46*75
$GPGSV,3,2,11,14,33,205,42,09,28,094,34,03,28,291,39,24,27,095,33*73
$GPGSV,3,3,11,15,27,047,35,19,17,316,34,48,35,219,41*45
$GPRMC,235456.000,A,4003.8563,N,10512.5931,W,9.14,257.26,141112,,*1A
$GPGGA,235457.000,4003.8562,N,10512.5971,W,2,10,1.0,1576.5,M,-20.7,M,0.8,0000*72
$GPGSA,A,3,22,18,21,06,14,03,09,24,19,15,,,1.9,1.0,1.6*35
$GPRMC,235457.000,A,4003.8562,N,10512.5971,W,12.22,271.98,141112,,*20
$GPGGA,235458.000,4003.8564,N,10512.6022,W,2,10,1.0,1576.5,M,-20.7,M,1.8,0000*76
$GPGSA,A,3,22,18,21,06,14,03,09,24,19,15,,,1.9,1.0,1.6*35
$GPRMC,235458.000,A,4003.8564,N,10512.6022,W,15.46,273.36,141112,,*26
$GPGGA,235459.000,4003.8567,N,10512.6084,W,2,10,1.0,1576.1,M,-20.7,M,0.8,0000*7D
$GPGSA,A,3,22,18,21,06,14,03,09,24,19,15,,,1.9,1.0,1.6*35
$GPRMC,235459.000,A,4003.8567,N,10512.6084,W,18.46,272.34,141112,,*26
$GPGGA,235500.000,4003.8569,N,10512.6156,W,2,10,1.0,1575.5,M,-20.7,M,0.8,0000*77
$GPGSA,A,3,22,18,21,06,14,03,09,24,19,15,,,1.9,1.0,1.6*35
$GPRMC,235500.000,A,4003.8569,N,10512.6156,W,20.78,271.07,141112,,*2E
$GPGGA,235501.000,4003.8569,N,10512.6235,W,2,10,1.0,1575.1,M,-20.7,M,0.8,0000*74
$GPGSA,A,3,22,18,21,06,14,03,09,24,19,15,,,1.9,1.0,1.6*35
$GPGSV,3,1,11,18,72,014,40,21,63,127,40,22,51,284,43,06,37,274,44*7E
$GPGSV,3,2,11,14,33,205,36,09,28,094,33,03,28,291,44,24,27,095,29*76
$GPGSV,3,3,11,15,27,047,27,19,17,316,37,48,35,219,43*47
$GPRMC,235501.000,A,4003.8569,N,10512.6235,W,22.24,270.56,141112,,*27
$GPGGA,235502.000,4003.8570,N,10512.6318,W,2,10,1.0,1574.6,M,-20.7,M,1.8,0000*76
$GPGSA,A,3,22,18,21,06,14,03,09,24,19,15,,,1.9,1.0,1.6*35
$GPRMC,235502.000,A,4003.8570,N,10512.6318,W,23.32,270.27,141112,,*22
$GPGGA,235503.000,4003.8571,N,10512.6405,W,2,09,1.1,1574.2,M,-20.7,M,2.8,0000*73
$GPGSA,A,3,22,18,21,06,14,03,09,24,19,,,,2.0,1.1,1.7*3B
$GPRMC,235503.000,A,4003.8571,N,10512.6405,W,24.06,270.26,141112,,*28
$GPGGA,235504.000,4003.8572,N,10512.6494,W,2,10,1.0,1573.8,M,-20.7,M,3.8,0000*7A
$GPGSA,A,3,22,18,21,06,14,03,09,24,19,15,,,1.9,1.0,1.6*35
$GPRMC,235504.000,A,4003.8572,N,10512.6494,W,24.69,270.09,141112,,*20
$GPGGA,235505.000,4003.8573,N,10512.6584,W,2,10,1.0,1573.6,M,-20.7,M,0.8,0000*77
$GPGSA,A,3,22,18,21,06,14,03,09,24,19,15,,,1.9,1.0,1.6*35
$GPRMC,235505.000,A,4003.8573,N,10512.6584,W,24.96,270.10,141112,,*28
$GPGGA,235506.000,4003.8574,N,10512.6675,W,2,10,1.0,1573.5,M,-20.7,M,0.8,0000*7D
$GPGSA,A,3,22,18,21,06,14,03,09,24,19,15,,,1.9,1.0,1.6*35
$GPGSV,3,1,11,18,72,014,40,21,63,127,40,22,51,284,43,06,37,274,43*79
$GPGSV,3,2,11,14,33,205,36,09,28,094,29,03,28,291,44,24,27,095,27*73
$GPGSV,3,3,11,15,27,047,32,19,17,316,38,48,35,219,42*4D
$GPRMC,235506.000,A,4003.8574,N,10512.6675,W,25.06,270.28,141112,,*22
$GPGGA,235507.000,4003.8574,N,10512.6767,W,2,10,1.0,1573.4,M,-20.7,M,0.8,0000*7F
$GPGSA,A,3,22,18,21,06,14,03,09,24,19,15,,,1.9,1.0,1.6*35
$GPRMC,235507.000,A,4003.8574,N,10512.6767,W,25.48,269.85,141112,,*24
$GPGGA,235508.000,4003.8574,N,10512.6861,W,2,10,1.0,1573.3,M,-20.7,M,0.8,0000*7E
$GPGSA,A,3,22,18,21,06,14,03,09,24,19,15,,,1.9,1.0,1.6*35
$GPRMC,235508.000,A,4003.8574,N,10512.6861,W,26.02,268.32,141112,,*22
$GPGGA,235509.000,4003.8570,N,10512.6956,W,2,10,1.0,1573.3,M,-20.7,M,1.8,0000*7F
$GPGSA,A,3,22,18,21,06,14,03,09,24,19,15,,,1.9,1.0,1.6*35
$GPRMC,235509.000,A,4003.8570,N,10512.6956,W,26.44,265.78,141112,,*23
$GPGGA,235510.000,4003.8563,N,10512.7054,W,2,10,1.0,1573.7,M,-20.7,M,2.8,0000*78
$GPGSA,A,3,22,18,21,06,14,03,09,24,19,15,,,1.9,1.0,1.6*35
$GPRMC,235510.000,A,4003.8563,N,10512.7054,W,26.85,262.64,141112,,*24
$GPGGA,235511.000,4003.8552,N,10512.7154,W,2,09,1.1,1574.4,M,-20.7,M,0.8,0000*75
$GPGSA,A,3,22,18,21,06,14,03,09,24,19,,,,2.0,1.1,1.7*3B
$GPGSV,3,1,11,18,72,014,39,21,63,127,36,22,51,284,42,06,37,274,40*74
$GPGSV,3,2,11,14,33,205,37,09,28,094,36,03,28,291,44,24,27,095,37*7D
$GPGSV,3,3,11,15,27,047,,19,17,316,33,48,35,219,41*44
$GPRMC,235511.000,A,4003.8552,N,10512.7154,W,26.92,260.45,141112,,*21
$GPGGA,235512.000,4003.8539,N,10512.7253,W,2,10,1.0,1575.0,M,-20.7,M,0.8,0000*73
$GPGSA,A,3,22,18,21,06,14,03,09,24,19,15,,,1.9,1.0,1.6*35
$GPRMC,235512.000,A,4003.8539,N,10512.7253,W,26.74,260.37,141112,,*26
$GPGGA,235513.000,4003.8528,N,10512.7350,W,2,09,1.1,1575.6,M,-20.7,M,0.8,0000*7F
$GPGSA,A,3,22,18,21,06,14,03,09,24,19,,,,2.0,1.1,1.7*3B
$GPRMC,235513.000,A,4003.8528,N,10512.7350,W,26.47,262.19,141112,,*2B
$GPGGA,235514.000,4003.8521,N,10512.7445,W,2,10,1.0,1575.6,M,-20.7,M,1.8,0000*7A
$GPGSA,A,3,22,18,21,06,14,03,09,24,19,15,,,1.9,1.0,1.6*35
$GPRMC,235514.000,A,4003.8521,N,10512.7445,W,26.20,265.94,141112,,*25
$GPGGA,235515.000,4003.8519,N,10512.7540,W,2,10,1.0,1575.6,M,-20.7,M,2.8,0000*77
$GPGSA,A,3,22,18,21,06,14,03,09,24,19,15,,,1.9,1.0,1.6*35
$GPRMC,235515.000,A,4003.8519,N,10512.7540,W,26.12,271.28,141112,,*28
$GPGGA,235516.000,4003.8525,N,10512.7635,W,2,10,1.0,1575.6,M,-20.7,M,3.8,0000*7B
$GPGSA,A,3,22,18,21,06,14,03,09,24,19,15,,,1.9,1.0,1.6*35
$GPGSV,3,1,11,18,72,015,40,21,63,127,44,22,51,284,42,06,37,274,42*7C
$GPGSV,3,2,11,14,34,205,40,09,28,094,30,03,28,291,44,24,28,094,29*7D
$GPGSV,3,3,11,15,27,047,26,19,17,316,42,48,35,219,42*45
$GPRMC,235516.000,A,4003.8525,N,10512.7635,W,26.40,276.64,141112,,*2D
$GPGGA,235517.000,4003.8537,N,10512.7731,W,2,10,1.0,1575.8,M,-20.7,M,0.8,0000*71
$GPGSA,A,3,22,18,21,06,14,03,09,24,19,15,,,1.9,1.0,1.6*35
$GPRMC,235517.000,A,4003.8537,N,10512.7731,W,26.65,281.97,141112,,*29
$GPGGA,235518.000,4003.8557,N,10512.7825,W,2,10,1.0,1575.9,M,-20.7,M,0.8,0000*73
$GPGSA,A,3,22,18,21,06,14,03,09,24,19,15,,,1.9,1.0,1.6*35
$GPRMC,235518.000,A,4003.8557,N,10512.7825,W,26.80,287.79,141112,,*27
$GPGGA,235519.000,4003.8582,N,10512.7916,W,2,10,1.0,1576.1,M,-20.7,M,0.8,0000*70
$GPGSA,A,3,22,18,21,06,14,03,09,24,19,15,,,1.9,1.0,1.6*35
$GPRMC,235519.000,A,4003.8582,N,10512.7916,W,26.44,290.47,141112,,*2C
$GPGGA,235520.000,4003.8609,N,10512.8005,W,2,09,1.1,1576.3,M,-20.7,M,1.8,0000*74
$GPGSA,A,3,22,18,21,06,14,03,09,24,19,,,,2.0,1.1,1.7*3B
$GPRMC,235520.000,A,4003.8609,N,10512.8005,W,25.95,290.98,141112,,*2F
$GPGGA,235521.000,4003.8633,N,10512.8093,W,2,09,1.1,1576.5,M,-20.7,M,0.8,0000*74
$GPGSA,A,3,22,18,21,06,14,03,09,24,19,,,,2.0,1.1,1.7*3B
$GPGSV,3,1,11,18,72,015,41,21,63,127,44,22,51,284,43,06,37,274,42*7C
$GPGSV,3,2,11,14,34,205,42,09,28,094,34,03,28,291,41,24,28,094,33*75
$GPGSV,3,3,11,15,27,047,,19,17,316,43,48,35,219,40*42
$GPRMC,235521.000,A,4003.8633,N,10512.8093,W,25.38,288.21,141112,,*24
$GPGGA,235522.000,4003.8653,N,10512.8180,W,2,10,1.0,1576.7,M,-20.7,M,1.8,0000*78
$GPGSA,A,3,22,18,21,06,14,03,09,24,19,15,,,1.9,1.0,1.6*35
$GPRMC,235522.000,A,4003.8653,N,10512.8180,W,24.79,283.70,141112,,*29
$GPGGA,235523.000,4003.8666,N,10512.8267,W,2,10,1.0,1577.0,M,-20.7,M,0.8,0000*72
$GPGSA,A,3,22,18,21,06,14,03,09,24,19,15,,,1.9,1.0,1.6*35
$GPRMC,235523.000,A,4003.8666,N,10512.8267,W,24.24,277.11,141112,,*20
$GPGGA,235524.000,4003.8669,N,10512.8354,W,2,09,1.1,1577.1,M,-20.7,M,0.8,0000*73
$GPGSA,A,3,22,18,21,06,14,03,09,24,19,,,,2.0,1.1,1.7*3B
$GPRMC,235524.000,A,4003.8669,N,10512.8354,W,23.64,269.02,141112,,*27
$GPGGA,235525.000,4003.8663,N,10512.8439,W,2,10,1.0,1577.6,M,-20.7,M,0.8,0000*7A
$GPGSA,A,3,22,18,21,06,14,03,09,24,19,15,,,1.9,1.0,1.6*35
$GPRMC,235525.000,A,4003.8663,N,10512.8439,W,23.18,261.37,141112,,*25
$GPGGA,235526.000,4003.8649,N,10512.8521,W,2,10,1.0,1577.9,M,-20.7,M,1.8,0000*77
$GPGSA,A,3,22,18,21,06,14,03,09,24,19,15,,,1.9,1.0,1.6*35
$GPGSV,3,1,11,18,72,015,41,21,63,127,38,22,51,284,43,06,37,274,42*77
$GPGSV,3,2,11,14,34,205,40,09,28,094,38,03,28,291,42,24,28,094,37*7C
$GPGSV,3,3,11,15,27,047,33,19,17,316,30,48,35,219,40*46
$GPRMC,235526.000,A,4003.8649,N,10512.8521,W,22.43,253.79,141112,,*22
$GPGGA,235527.000,4003.8629,N,10512.8596,W,2,10,1.0,1577.9,M,-20.7,M,2.8,0000*7F
$GPGSA,A,3,22,18,21,06,14,03,09,24,19,15,,,1.9,1.0,1.6*35
$GPRMC,235527.000,A,4003.8629,N,10512.8596,W,21.61,247.63,141112,,*24
$GPGGA,235528.000,4003.8603,N,10512.8663,W,2,09,1.1,1578.0,M,-20.7,M,3.8,0000*7F
$GPGSA,A,3,22,18,21,06,14,03,09,24,19,,,,2.0,1.1,1.7*3B
$GPRMC,235528.000,A,4003.8603,N,10512.8663,W,19.97,239.47,141112,,*27
$GPGGA,235529.000,4003.8574,N,10512.8720,W,2,09,1.1,1578.1,M,-20.7,M,0.8,0000*79
$GPGSA,A,3,22,18,21,06,14,03,09,24,19,,,,2.0,1.1,1.7*3B
$GPRMC,235529.000,A,4003.8574,N,10512.8720,W,17.68,234.38,141112,,*28
$GPGGA,235530.000,4003.8547,N,10512.8771,W,2,10,1.0,1578.3,M,-20.7,M,0.8,0000*7E
$GPGSA,A,3,22,18,21,06,14,03,09,24,19,15,,,1.9,1.0,1.6*35
$GPRMC,235530.000,A,4003.8547,N,10512.8771,W,16.11,239.54,141112,,*2C
$GPGGA,235531.000,4003.8530,N,10512.8822,W,2,10,1.0,1578.3,M,-20.7,M,0.8,0000*76
$GPGSA,A,3,22,18,21,06,14,03,09,24,19,15,,,1.9,1.0,1.6*35
$GPGSV,3,1,11,18,72,015,35,21,63,127,38,22,51,284,43,06,37,274,44*72
$GPGSV,3,2,11,14,34,205,41,09,28,094,33,03,28,291,43,24,28,094,31*71
$GPGSV,3,3,11,15,27,047,35,19,17,316,35,48,35,219,40*45
$GPRMC,235531.000,A,4003.8530,N,10512.8822,W,15.29,254.64,141112,,*24
$GPGGA,235532.000,4003.8527,N,10512.8876,W,2,10,1.0,1578.4,M,-20.7,M,0.8,0000*75
$GPGSA,A,3,22,18,21,06,14,03,09,24,19,15,,,1.9,1.0,1.6*35
$GPRMC,235532.000,A,4003.8527,N,10512.8876,W,14.93,274.23,141112,,*21
$GPGGA,235533.000,4003.8539,N,10512.8929,W,2,10,1.0,1578.7,M,-20.7,M,1.8,0000*72
$GPGSA,A,3,22,18,21,06,14,03,09,24,19,15,,,1.9,1.0,1.6*35
$GPRMC,235533.000,A,4003.8539,N,10512.8929,W,16.00,294.69,141112,,*2C
$GPGGA,235534.000,4003.8564,N,10512.8980,W,2,10,1.0,1578.8,M,-20.7,M,2.8,0000*72
$GPGSA,A,3,22,18,21,06,14,03,09,24,19,15,,,1.9,1.0,1.6*35
$GPRMC,235534.000,A,4003.8564,N,10512.8980,W,17.53,308.42,141112,,*2A
$GPGGA,235535.000,4003.8597,N,10512.9031,W,2,10,1.0,1578.9,M,-20.7,M,0.8,0000*7E
$GPGSA,A,3,22,18,21,06,14,03,09,24,19,15,,,1.9,1.0,1.6*35
$GPRMC,235535.000,A,4003.8597,N,10512.9031,W,19.05,310.30,141112,,*24
$GPGGA,235536.000,4003.8633,N,10512.9084,W,2,10,1.0,1579.1,M,-20.7,M,0.8,0000*77
$GPGSA,A,3,22,18,21,06,14,03,09,24,19,15,,,1.9,1.0,1.6*35
$GPGSV,3,1,11,18,72,015,44,21,63,127,39,22,51,284,43,06,37,274,43*72
$GPGSV,3,2,11,14,34,205,42,09,28,094,25,03,28,291,42,24,28,094,29*7D
$GPGSV,3,3,11,15,27,047,41,19,17,316,44,48,35,219,44*44
$GPRMC,235536.000,A,4003.8633,N,10512.9084,W,19.59,310.51,141112,,*2A
$GPGGA,235537.000,4003.8668,N,10512.9137,W,2,10,1.0,1579.2,M,-20.7,M,0.8,0000*72
$GPGSA,A,3,22,18,21,06,14,03,09,24,19,15,,,1.9,1.0,1.6*35
$GPRMC,235537.000,A,4003.8668,N,10512.9137,W,19.25,310.55,141112,,*23
$GPGGA,235538.000,4003.8703,N,10512.9190,W,2,10,1.0,1579.4,M,-20.7,M,0.8,0000*7A
$GPGSA,A,3,22,18,21,06,14,03,09,24,19,15,,,1.9,1.0,1.6*35
$GPRMC,235538.000,A,4003.8703,N,10512.9190,W,18.80,310.69,141112,,*2C
$GPGGA,235539.000,4003.8737,N,10512.9240,W,2,10,1.0,1579.5,M,-20.7,M,0.8,0000*73
$GPGSA,A,3,22,18,21,06,14,03,09,24,19,15,,,1.9,1.0,1.6*35
$GPRMC,235539.000,A,4003.8737,N,10512.9240,W,18.38,310.91,141112,,*20
$GPGGA,235540.000,4003.8770,N,10512.9289,W,2,10,1.0,1579.6,M,-20.7,M,1.8,0000*79
$GPGSA,A,3,22,18,21,06,14,03,09,24,19,15,,,1.9,1.0,1.6*35
$GPRMC,235540.000,A,4003.8770,N,10512.9289,W,17.30,311.09,141112,,*2F
$GPGGA,235541.000,4003.8799,N,10512.9332,W,2,10,1.0,1579.7,M,-20.7,M,0.8,0000*7E
$GPGSA,A,3,22,18,21,06,14,03,09,24,19,15,,,1.9,1.0,1.6*35
$GPGSV,3,1,11,18,72,015,45,21,63,127,40,22,51,284,43,06,37,274,43*7D
$GPGSV,3,2,11,14,34,205,42,09,28,094,26,03,28,291,42,24,28,094,25*72
$GPGSV,3,3,11,15,27,047,41,19,17,316,44,48,35,219,44*44
$GPRMC,235541.000,A,4003.8799,N,10512.9332,W,14.72,310.92,141112,,*2E
$GPGGA,235542.000,4003.8823,N,10512.9368,W,2,10,1.0,1579.9,M,-20.7,M,0.8,0000*72
$GPGSA,A,3,22,18,21,06,14,03,09,24,19,15,,,1.9,1.0,1.6*35
$GPRMC,235542.000,A,4003.8823,N,10512.9368,W,11.35,310.79,141112,,*2F
$GPGGA,235543.000,4003.8840,N,10512.9394,W,2,10,1.0,1580.0,M,-20.7,M,0.8,0000*7A
$GPGSA,A,3,22,18,21,06,14,03,09,24,19,15,,,1.9,1.0,1.6*35
$GPRMC,235543.000,A,4003.8840,N,10512.9394,W,7.98,308.79,141112,,*11
$GPGGA,235544.000,4003.8852,N,10512.9415,W,2,10,1.0,1580.1,M,-20.7,M,1.8,0000*70
$GPGSA,A,3,22,18,21,06,14,03,09,24,19,15,,,1.9,1.0,1.6*35
$GPRMC,235544.000,A,4003.8852,N,10512.9415,W,6.78,301.03,141112,,*10
$GPGGA,235545.000,4003.8858,N,10512.9440,W,2,10,1.0,1580.2,M,-20.7,M,0.8,0000*79
$GPGSA,A,3,22,18,21,06,14,03,09,24,19,15,,,1.9,1.0,1.6*35
$GPRMC,235545.000,A,4003.8858,N,10512.9440,W,7.97,280.60,141112,,*16
$GPGGA,235546.000,4003.8858,N,10512.9472,W,2,10,1.0,1580.2,M,-20.7,M,1.8,0000*7A
$GPGSA,A,3,22,18,21,06,14,03,09,24,19,15,,,1.9,1.0,1.7*34
$GPGSV,3,1,11,18,71,016,44,21,63,127,40,22,51,284,43,06,37,273,43*7B
$GPGSV,3,2,11,14,34,205,42,09,28,093,34,03,28,290,42,24,28,094,33*70
$GPGSV,3,3,11,15,27,047,30,19,18,316,43,48,35,219,41*4F
$GPRMC,235546.000,A,4003.8858,N,10512.9472,W,10.36,261.30,141112,,*23
$GPGGA,235547.000,4003.8847,N,10512.9512,W,2,10,1.0,1580.3,M,-20.7,M,0.8,0000*72
$GPGSA,A,3,22,18,21,06,14,03,09,24,19,15,,,1.9,1.0,1.7*34
$GPRMC,235547.000,A,4003.8847,N,10512.9512,W,12.99,244.44,141112,,*28
$GPGGA,235548.000,4003.8824,N,10512.9554,W,2,10,1.0,1580.3,M,-20.7,M,0.8,0000*7A
$GPGSA,A,3,22,18,21,06,14,03,09,24,19,15,,,1.9,1.0,1.7*34
$GPRMC,235548.000,A,4003.8824,N,10512.9554,W,15.70,229.88,141112,,*2B
$GPGGA,235549.000,4003.8789,N,10512.9597,W,2,10,1.0,1580.2,M,-20.7,M,0.8,0000*7D
$GPGSA,A,3,22,18,21,06,14,03,09,24,19,15,,,1.9,1.0,1.7*34
$GPRMC,235549.000,A,4003.8789,N,10512.9597,W,17.98,219.62,141112,,*2E
$GPGGA,235550.000,4003.8742,N,10512.9637,W,2,10,1.0,1580.2,M,-20.7,M,1.8,0000*7A
$GPGSA,A,3,22,18,21,06,14,03,09,24,19,15,,,1.9,1.0,1.7*34
$GPRMC,235550.000,A,4003.8742,N,10512.9637,W,20.49,211.98,141112,,*2D
$GPGGA,235551.000,4003.8688,N,10512.9674,W,2,10,1.0,1580.1,M,-20.7,M,2.8,0000*7B
$GPGSA,A,3,22,18,21,06,14,03,09,24,19,15,,,1.9,1.0,1.7*34
$GPGSV,3,1,11,18,71,016,38,21,63,127,40,22,51,284,38,06,37,273,36*7E
$GPGSV,3,2,11,14,34,205,42,09,28,093,40,03,28,290,42,24,28,094,38*78
$GPGSV,3,3,11,15,27,047,41,19,18,316,37,48,35,219,39*45
$GPRMC,235551.000,A,4003.8688,N,10512.9674,W,22.58,205.96,141112,,*25
$GPGGA,235552.000,4003.8626,N,10512.9704,W,2,10,1.0,1580.0,M,-20.7,M,3.8,0000*7A
$GPGSA,A,3,22,18,21,06,14,03,09,24,19,15,,,1.9,1.0,1.7*34
$GPRMC,235552.000,A,4003.8626,N,10512.9704,W,24.35,197.74,141112,,*2D
$GPGGA,235553.000,4003.8556,N,10512.9724,W,2,10,1.0,1579.9,M,-20.7,M,0.8,0000*71
$GPGSA,A,3,22,18,21,06,14,03,09,24,19,15,,,1.9,1.0,1.7*34
$GPRMC,235553.000,A,4003.8556,N,10512.9724,W,26.11,189.62,141112,,*26
$GPGGA,235554.000,4003.8480,N,10512.9734,W,2,10,1.0,1579.7,M,-20.7,M,0.8,0000*73
$GPGSA,A,3,22,18,21,06,14,03,09,24,19,15,,,1.9,1.0,1.7*34
$GPRMC,235554.000,A,4003.8480,N,10512.9734,W,27.23,183.37,141112,,*20
$GPGGA,235555.000,4003.8402,N,10512.9736,W,2,10,1.0,1579.6,M,-20.7,M,0.8,0000*7B
$GPGSA,A,3,22,18,21,06,14,03,09,24,19,15,,,1.9,1.0,1.7*34
$GPRMC,235555.000,A,4003.8402,N,10512.9736,W,28.22,180.99,141112,,*20
$GPGGA,235556.000,4003.8321,N,10512.9735,W,2,10,1.0,1579.4,M,-20.7,M,1.8,0000*7E
$GPGSA,A,3,22,18,21,06,14,03,09,24,19,15,,,1.9,1.0,1.7*34
$GPGSV,3,1,11,18,71,016,40,21,63,127,40,22,51,284,41,06,37,273,43*7D
$GPGSV,3,2,11,14,34,205,42,09,28,093,42,03,28,290,35,24,28,094,41*74
$GPGSV,3,3,11,15,27,047,32,19,18,316,31,48,35,219,46*4F
$GPRMC,235556.000,A,4003.8321,N,10512.9735,W,28.94,179.45,141112,,*2C
$GPGGA,235557.000,4003.8239,N,10512.9733,W,2,10,1.0,1579.2,M,-20.7,M,0.8,0000*76
$GPGSA,A,3,22,18,21,06,14,03,09,24,19,15,,,1.9,1.0,1.7*34
$GPRMC,235557.000,A,4003.8239,N,10512.9733,W,29.51,179.05,141112,,*2F
$GPGGA,235558.000,4003.8155,N,10512.9730,W,2,10,1.0,1578.9,M,-20.7,M,0.8,0000*79
$GPGSA,A,3,22,18,21,06,14,03,09,24,19,15,,,1.9,1.0,1.7*34
$GPRMC,235558.000,A,4003.8155,N,10512.9730,W,30.03,179.31,141112,,*22
$GPGGA,235559.000,4003.8070,N,10512.9728,W,2,10,1.0,1578.7,M,-20.7,M,0.8,0000*79
$GPGSA,A,3,22,18,21,06,14,03,09,24,19,15,,,1.9,1.0,1.7*34
$GPRMC,235559.000,A,4003.8070,N,10512.9728,W,30.40,179.69,141112,,*26
$GPGGA,235600.000,4003.7984,N,10512.9727,W,2,10,1.0,1578.7,M,-20.7,M,0.8,0000*74
$GPGSA,A,3,22,18,21,06,14,03,09,24,19,15,,,1.9,1.0,1.7*34
$GPRMC,235600.000,A,4003.7984,N,10512.9727,W,30.48,179.77,141112,,*2C
$GPGGA,235601.000,4003.7899,N,10512.9726,W,2,10,1.0,1578.7,M,-20.7,M,0.8,0000*79
$GPGSA,A,3,22,18,21,06,14,03,09,24,19,15,,,1.9,1.0,1.7*34
$GPGSV,3,1,11,18,71,016,41,21,63,127,39,22,51,284,41,06,37,273,42*73
$GPGSV,3,2,11,14,34,205,43,09,28,093,43,03,28,290,26,24,28,094,41*76
$GPGSV,3,3,11,15,27,047,29,19,18,316,31,48,35,219,45*46
$GPRMC,235601.000,A,4003.7899,N,10512.9726,W,30.26,179.54,141112,,*28
$GPGGA,235602.000,4003.7815,N,10512.9724,W,2,10,1.0,1578.8,M,-20.7,M,0.8,0000*73
$GPGSA,A,3,22,18,21,06,14,03,09,24,19,15,,,1.9,1.0,1.7*34
$GPRMC,235602.000,A,4003.7815,N,10512.9724,W,29.95,179.90,141112,,*25
$GPGGA,235603.000,4003.7731,N,10512.9724,W,2,10,1.0,1578.9,M,-20.7,M,1.8,0000*7B
$GPGSA,A,3,22,18,21,06,14,03,09,24,19,15,,,1.9,1.0,1.7*34
$GPRMC,235603.000,A,4003.7731,N,10512.9724,W,29.67,180.37,141112,,*2B
$GPGGA,235604.000,4003.7647,N,10512.9724,W,2,10,1.0,1579.3,M,-20.7,M,2.8,0000*74
$GPGSA,A,3,22,18,21,06,14,03,09,24,19,15,,,1.9,1.0,1.7*34
$GPRMC,235604.000,A,4003.7647,N,10512.9724,W,29.35,180.94,141112,,*22
$GPGGA,235605.000,4003.7565,N,10512.9725,W,2,10,1.0,1579.5,M,-20.7,M,0.8,0000*73
$GPGSA,A,3,22,18,21,06,14,03,09,24,19,15,,,1.9,1.0,1.7*34
$GPRMC,235605.000,A,4003.7565,N,10512.9725,W,29.01,181.18,141112,,*23
$GPGGA,235606.000,4003.7484,N,10512.9727,W,2,10,1.0,1579.6,M,-20.7,M,0.8,0000*7F
$GPGSA,A,3,22,18,21,06,14,03,09,24,19,15,,,1.9,1.0,1.7*34
$GPGSV,3,1,11,18,71,016,41,21,63,127,39,22,51,284,41,06,37,273,42*73
$GPGSV,3,2,11,14,34,205,43,09,28,093,41,03,28,290,35,24,28,094,40*77
$GPGSV,3,3,11,15,27,047,31,19,18,316,32,48,35,219,46*4F
$GPRMC,235606.000,A,4003.7484,N,10512.9727,W,29.15,181.43,141112,,*27
$GPGGA,235607.000,4003.7401,N,10512.9729,W,2,10,1.0,1579.7,M,-20.7,M,0.8,0000*7C
$GPGSA,A,3,22,18,21,06,14,03,09,24,19,15,,,1.9,1.0,1.7*34
$GPRMC,235607.000,A,4003.7401,N,10512.9729,W,29.99,181.59,141112,,*2A
$GPGGA,235608.000,4003.7315,N,10512.9731,W,2,10,1.0,1579.9,M,-20.7,M,1.8,0000*77
$GPGSA,A,3,22,18,21,06,14,03,09,24,19,15,,,1.9,1.0,1.7*34
$GPRMC,235608.000,A,4003.7315,N,10512.9731,W,30.61,181.32,141112,,*2C
$GPGGA,235609.000,4003.7229,N,10512.9733,W,2,10,1.0,1580.0,M,-20.7,M,2.8,0000*76
$GPGSA,A,3,22,18,21,06,14,03,09,24,19,15,,,1.9,1.0,1.7*34
$GPRMC,235609.000,A,4003.7229,N,10512.9733,W,30.74,181.11,141112,,*24
$GPGGA,235610.000,4003.7143,N,10512.9735,W,2,10,1.0,1580.2,M,-20.7,M,3.8,0000*74
$GPGSA,A,3,22,18,21,06,14,03,09,24,19,15,,,1.9,1.0,1.7*34
$GPRMC,235610.000,A,4003.7143,N,10512.9735,W,30.45,181.00,141112,,*27
$GPGGA,235611.000,4003.7058,N,10512.9735,W,2,10,1.0,1580.3,M,-20.7,M,0.8,0000*7C
$GPGSA,A,3,22,18,21,06,14,03,09,24,19,15,,,1.9,1.0,1.7*34
$GPGSV,3,1,11,18,71,016,42,21,63,127,39,22,51,284,41,06,37,273,42*70
$GPGSV,3,2,11,14,34,205,43,09,28,093,42,03,28,290,37,24,28,094,41*77
$GPGSV,3,3,11,15,27,047,32,19,18,316,32,48,35,219,46*4C
$GPRMC,235611.000,A,4003.7058,N,10512.9735,W,30.28,180.14,141112,,*22
$GPGGA,235612.000,4003.6973,N,10512.9735,W,2,10,1.0,1580.6,M,-20.7,M,0.8,0000*7B
$GPGSA,A,3,22,18,21,06,14,03,09,24,19,15,,,1.9,1.0,1.7*34
$GPRMC,235612.000,A,4003.6973,N,10512.9735,W,30.36,180.03,141112,,*29
$GPGGA,235613.000,4003.6887,N,10512.9734,W,2,10,1.0,1580.8,M,-20.7,M,0.8,0000*7F
$GPGSA,A,3,22,18,21,06,14,03,09,24,19,15,,,1.9,1.0,1.7*34
$GPRMC,235613.000,A,4003.6887,N,10512.9734,W,30.38,180.14,141112,,*2B
$GPGGA,235614.000,4003.6802,N,10512.9734,W,2,10,1.0,1580.9,M,-20.7,M,1.8,0000*75
$GPGSA,A,3,22,18,21,06,14,03,09,24,19,15,,,1.9,1.0,1.7*34
$GPRMC,235614.000,A,4003.6802,N,10512.9734,W,30.44,179.53,141112,,*2F
$GPGGA,235615.000,4003.6717,N,10512.9733,W,2,10,1.0,1581.0,M,-20.7,M,2.8,0000*73
$GPGSA,A,3,22,18,21,06,14,03,09,24,19,15,,,1.9,1.0,1.7*34
$GPRMC,235615.000,A,4003.6717,N,10512.9733,W,30.37,179.36,141112,,*25
$GPGGA,235616.000,4003.6632,N,10512.9731,W,2,10,1.0,1581.0,M,-20.7,M,3.8,0000*75
$GPGSA,A,3,22,18,21,06,14,03,09,24,19,15,,,1.9,1.0,1.7*34
$GPGSV,3,1,11,18,71,016,42,21,63,127,38,22,51,285,40,06,37,273,41*72
$GPGSV,3,2,11,14,34,206,43,09,28,093,43,03,28,290,30,24,28,094,42*71
$GPGSV,3,3,11,15,27,047,32,19,18,316,28,48,35,219,45*44
$GPRMC,235616.000,A,4003.6632,N,10512.9731,W,30.38,179.48,141112,,*24
$GPGGA,235617.000,4003.6547,N,10512.9730,W,2,10,1.0,1581.0,M,-20.7,M,0.8,0000*77
$GPGSA,A,3,22,18,21,06,14,03,09,24,19,15,,,1.9,1.0,1.7*34
$GPRMC,235617.000,A,4003.6547,N,10512.9730,W,30.34,179.55,141112,,*25
$GPGGA,235618.000,4003.6463,N,10512.9729,W,2,10,1.0,1580.8,M,-20.7,M,0.8,0000*7E
$GPGSA,A,3,22,18,21,06,14,03,09,24,19,15,,,1.9,1.0,1.7*34
$GPRMC,235618.000,A,4003.6463,N,10512.9729,W,30.35,179.42,141112,,*22
$GPGGA,235619.000,4003.6377,N,10512.9728,W,2,10,1.0,1580.7,M,-20.7,M,0.8,0000*73
$GPGSA,A,3,22,18,21,06,14,03,09,24,19,15,,,1.9,1.0,1.7*34
$GPRMC,235619.000,A,4003.6377,N,10512.9728,W,30.45,179.33,141112,,*21
$GPGGA,235620.000,4003.6292,N,10512.9726,W,2,10,1.0,1580.6,M,-20.7,M,1.8,0000*7D
$GPGSA,A,3,22,18,21,06,14,03,09,24,19,15,,,1.9,1.0,1.7*34
$GPRMC,235620.000,A,4003.6292,N,10512.9726,W,30.74,179.09,141112,,*24
$GPGGA,235621.000,4003.6205,N,10512.9724,W,2,10,1.0,1580.6,M,-20.7,M,2.8,0000*73
$GPGSA,A,3,22,18,21,06,14,03,09,24,19,15,,,1.9,1.0,1.7*34
$GPGSV,3,1,11,18,71,016,42,21,63,127,38,22,51,285,40,06,37,273,41*72
$GPGSV,3,2,11,14,34,206,43,09,28,093,43,03,28,290,33,24,28,094,42*72
$GPGSV,3,3,11,15,27,047,31,19,18,316,28,48,35,219,45*47
$GPRMC,235621.000,A,4003.6205,N,10512.9724,W,31.04,179.06,141112,,*20
$GPGGA,235622.000,4003.6118,N,10512.9721,W,2,10,1.0,1580.9,M,-20.7,M,3.8,0000*74
$GPGSA,A,3,22,18,21,06,14,03,09,24,19,15,,,1.9,1.0,1.7*34
$GPRMC,235622.000,A,4003.6118,N,10512.9721,W,31.10,178.84,141112,,*27
$GPGGA,235623.000,4003.6029,N,10512.9719,W,2,10,1.0,1581.2,M,-20.7,M,0.8,0000*74
$GPGSA,A,3,22,18,21,06,14,03,09,24,19,15,,,1.9,1.0,1.7*34
$GPRMC,235623.000,A,4003.6029,N,10512.9719,W,32.08,179.60,141112,,*2F
$GPGGA,235624.000,4003.5936,N,10512.9721,W,2,10,1.0,1581.9,M,-20.7,M,1.8,0000*76
$GPGSA,A,3,22,18,21,06,14,03,09,24,19,15,,,1.9,1.0,1.7*34
$GPRMC,235624.000,A,4003.5936,N,10512.9721,W,33.69,181.77,141112,,*20
$GPGGA,235625.000,4003.5845,N,10512.9724,W,2,10,1.0,1583.1,M,-20.7,M,2.8,0000*7E
$GPGSA,A,3,22,18,21,06,14,03,09,24,19,15,,,1.9,1.0,1.7*34
$GPRMC,235625.000,A,4003.5845,N,10512.9724,W,31.78,181.61,141112,,*24
$GPGGA,235626.000,4003.5757,N,10512.9724,W,2,10,1.0,1583.2,M,-20.7,M,0.8,0000*70
$GPGSA,A,3,22,18,21,06,14,03,09,24,19,15,,,1.9,1.0,1.7*34
$GPGSV,3,1,11,18,71,016,43,21,63,127,45,22,51,285,45,06,37,273,41*7C
$GPGSV,3,2,11,14,34,206,36,09,28,093,44,03,28,290,43,24,28,094,43*71
$GPGSV,3,3,11,15,27,047,31,19,18,316,28,48,35,219,40*42
$GPRMC,235626.000,A,4003.5757,N,10512.9724,W,31.07,179.53,141112,,*25
$GPGGA,235627.000,4003.5670,N,10512.9723,W,2,09,1.0,1583.4,M,-20.7,M,0.8,0000*7C
$GPGSA,A,3,22,18,21,06,14,03,09,24,15,,,,2.1,1.0,1.9*39
$GPRMC,235627.000,A,4003.5670,N,10512.9723,W,31.42,179.42,141112,,*26
$GPGGA,235628.000,4003.5581,N,10512.9721,W,2,10,1.0,1583.4,M,-20.7,M,1.8,0000*75
$GPGSA,A,3,22,18,21,06,14,03,09,24,19,15,,,1.9,1.0,1.7*34
$GPRMC,235628.000,A,4003.5581,N,10512.9721,W,31.80,179.34,141112,,*29
$GPGGA,235629.000,4003.5493,N,10512.9720,W,2,10,1.0,1583.6,M,-20.7,M,0.8,0000*74
$GPGSA,A,3,22,18,21,06,14,03,09,24,19,15,,,1.9,1.0,1.7*34
$GPRMC,235629.000,A,4003.5493,N,10512.9720,W,31.73,179.54,141112,,*21
$GPGGA,235630.000,4003.5404,N,10512.9718,W,2,10,1.0,1583.7,M,-20.7,M,0.8,0000*78
$GPGSA,A,3,22,18,21,06,14,03,09,24,19,15,,,1.9,1.0,1.7*34
$GPRMC,235630.000,A,4003.5404,N,10512.9718,W,31.51,178.88,141112,,*2C
$GPGGA,235631.000,4003.5316,N,10512.9714,W,2,10,1.0,1583.9,M,-20.7,M,0.8,0000*7F
$GPGSA,A,3,22,18,21,06,14,03,09,24,19,15,,,1.9,1.0,1.7*34
$GPGSV,3,1,11,18,71,016,45,21,63,127,45,22,51,285,45,06,37,273,41*7A
$GPGSV,3,2,11,14,34,206,36,09,28,093,45,03,28,290,42,24,28,094,43*71
$GPGSV,3,3,11,15,27,047,32,19,18,316,30,48,35,219,41*49
$GPRMC,235631.000,A,4003.5316,N,10512.9714,W,31.88,177.77,141112,,*2E
$GPGGA,235632.000,4003.5227,N,10512.9708,W,2,10,1.0,1584.0,M,-20.7,M,1.8,0000*7D
$GPGSA,A,3,22,18,21,06,14,03,09,24,19,15,,,1.9,1.0,1.7*34
$GPRMC,235632.000,A,4003.5227,N,10512.9708,W,31.85,176.62,141112,,*2B
$GPGGA,235633.000,4003.5139,N,10512.9701,W,2,10,1.0,1584.0,M,-20.7,M,2.8,0000*7A
$GPGSA,A,3,22,18,21,06,14,03,09,24,19,15,,,1.9,1.0,1.7*34
$GPRMC,235633.000,A,4003.5139,N,10512.9701,W,31.33,176.53,141112,,*20
$GPGGA,235634.000,4003.5053,N,10512.9694,W,2,10,1.0,1584.1,M,-20.7,M,3.8,0000*7D
$GPGSA,A,3,22,18,21,06,14,03,09,24,19,15,,,1.9,1.0,1.7*34
$GPRMC,235634.000,A,4003.5053,N,10512.9694,W,30.69,176.51,141112,,*2B
$GPGGA,235635.000,4003.4968,N,10512.9686,W,2,10,1.0,1584.1,M,-20.7,M,0.8,0000*7C
$GPGSA,A,3,22,18,21,06,14,03,09,24,19,15,,,1.9,1.0,1.7*34
$GPRMC,235635.000,A,4003.4968,N,10512.9686,W,30.17,176.35,141112,,*22
$GPGGA,235636.000,4003.4885,N,10512.9680,W,2,10,1.0,1584.1,M,-20.7,M,0.8,0000*7B
$GPGSA,A,3,22,18,21,06,14,03,09,24,19,15,,,1.9,1.0,1.7*34
$GPGSV,3,1,11,18,71,016,46,21,63,127,45,22,51,285,45,06,37,273,41*79
$GPGSV,3,2,11,14,34,206,29,09,28,093,45,03,28,290,35,24,28,094,43*7F
$GPGSV,3,3,11,15,27,047,32,19,18,316,30,48,35,219,36*49
$GPRMC,235636.000,A,4003.4885,N,10512.9680,W,29.62,176.93,141112,,*23
$GPGGA,235637.000,4003.4803,N,10512.9677,W,2,10,1.0,1583.9,M,-20.7,M,0.8,0000*73
$GPGSA,A,3,22,18,21,06,14,03,09,24,19,15,,,1.9,1.0,1.7*34
$GPRMC,235637.000,A,4003.4803,N,10512.9677,W,29.13,180.66,141112,,*21
$GPGGA,235638.000,4003.4724,N,10512.9683,W,2,10,1.0,1583.9,M,-20.7,M,1.8,0000*7C
$GPGSA,A,3,22,18,21,06,14,03,09,24,19,15,,,1.9,1.0,1.7*34
$GPRMC,235638.000,A,4003.4724,N,10512.9683,W,28.58,186.22,141112,,*27
$GPGGA,235639.000,4003.4646,N,10512.9700,W,2,10,1.0,1583.9,M,-20.7,M,2.8,0000*71
$GPGSA,A,3,22,18,21,06,14,03,09,24,19,15,,,1.9,1.0,1.7*34
$GPRMC,235639.000,A,4003.4646,N,10512.9700,W,28.42,192.19,141112,,*2F
$GPGGA,235640.000,4003.4569,N,10512.9723,W,2,10,1.0,1583.8,M,-20.7,M,3.8,0000*70
$GPGSA,A,3,22,18,21,06,14,03,09,24,19,15,,,1.9,1.0,1.7*34
$GPRMC,235640.000,A,4003.4569,N,10512.9723,W,28.48,192.83,141112,,*27
$GPGGA,235641.000,4003.4491,N,10512.9743,W,2,09,1.0,1583.8,M,-20.7,M,0.8,0000*7A
$GPGSA,A,3,22,18,21,06,14,03,09,24,15,,,,2.1,1.0,1.9*39
$GPGSV,3,1,11,18,71,016,46,21,63,127,46,22,51,285,44,06,37,273,40*7A
$GPGSV,3,2,11,14,34,206,39,09,28,093,43,03,28,290,39,24,28,094,42*75
$GPGSV,3,3,11,15,27,047,39,19,18,316,,48,35,219,30*47
$GPRMC,235641.000,A,4003.4491,N,10512.9743,W,28.47,189.56,141112,,*2B
$GPGGA,235642.000,4003.4412,N,10512.9757,W,2,10,1.0,1583.7,M,-20.7,M,1.8,0000*71
$GPGSA,A,3,22,18,21,06,14,03,09,24,19,15,,,1.9,1.0,1.7*34
$GPRMC,235642.000,A,4003.4412,N,10512.9757,W,28.78,186.07,141112,,*21
$GPGGA,235643.000,4003.4333,N,10512.9765,W,2,10,1.0,1583.6,M,-20.7,M,2.8,0000*77
$GPGSA,A,3,22,18,21,06,14,03,09,24,19,15,,,1.9,1.0,1.7*34
$GPRMC,235643.000,A,4003.4333,N,10512.9765,W,28.85,182.93,141112,,*2E
$GPGGA,235644.000,4003.4253,N,10512.9766,W,2,10,1.0,1583.5,M,-20.7,M,3.8,0000*76
$GPGSA,A,3,22,18,21,06,14,03,09,24,19,15,,,1.9,1.0,1.7*34
$GPRMC,235644.000,A,4003.4253,N,10512.9766,W,28.71,179.35,141112,,*2E
$GPGGA,235645.000,4003.4173,N,10512.9761,W,2,09,1.0,1583.4,M,-20.7,M,4.8,0000*7F
$GPGSA,A,3,22,18,21,06,14,03,09,24,15,,,,2.1,1.0,1.9*39
$GPRMC,235645.000,A,4003.4173,N,10512.9761,W,28.60,175.39,141112,,*29
$GPGGA,235646.000,4003.4094,N,10512.9748,W,2,10,1.0,1583.2,M,-20.7,M,5.8,0000*70
$GPGSA,A,3,22,18,21,06,14,03,09,24,19,15,,,1.9,1.0,1.7*34
$GPGSV,3,1,11,18,71,017,47,21,62,128,46,22,51,285,45,06,37,273,41*74
$GPGSV,3,2,11,14,34,206,30,09,28,093,44,03,28,290,39,24,28,094,42*7B
$GPGSV,3,3,11,15,26,047,26,19,18,316,28,48,35,219,37*45
$GPRMC,235646.000,A,4003.4094,N,10512.9748,W,28.69,170.25,141112,,*28
$GPGGA,235647.000,4003.4017,N,10512.9726,W,2,10,1.0,1583.2,M,-20.7,M,6.8,0000*71
$GPGSA,A,3,22,18,21,06,14,03,09,24,19,15,,,1.9,1.0,1.7*34
$GPRMC,235647.000,A,4003.4017,N,10512.9726,W,28.66,165.92,141112,,*2D
$GPGGA,235648.000,4003.3939,N,10512.9702,W,2,10,1.0,1583.2,M,-20.7,M,0.8,0000*7C
$GPGSA,A,3,22,18,21,06,14,03,09,24,19,15,,,1.9,1.0,1.7*34
$GPRMC,235648.000,A,4003.3939,N,10512.9702,W,28.87,168.43,141112,,*28
$GPGGA,235649.000,4003.3858,N,10512.9685,W,2,10,1.0,1583.2,M,-20.7,M,1.8,0000*74
$GPGSA,A,3,22,18,21,06,14,03,09,24,19,15,,,1.9,1.0,1.7*34
$GPRMC,235649.000,A,4003.3858,N,10512.9685,W,29.80,173.66,141112,,*2A
$GPGGA,235650.000,4003.3774,N,10512.9676,W,2,10,1.0,1583.3,M,-20.7,M,2.8,0000*73
$GPGSA,A,3,22,18,21,06,14,03,09,24,19,15,,,1.9,1.0,1.7*34
$GPRMC,235650.000,A,4003.3774,N,10512.9676,W,30.82,176.81,141112,,*29
$GPGGA,235651.000,4003.3687,N,10512.9671,W,2,10,1.0,1583.4,M,-20.7,M,0.8,0000*7D
$GPGSA,A,3,22,18,21,06,14,03,09,24,19,15,,,1.9,1.0,1.7*34
$GPGSV,3,1,11,18,71,017,47,21,62,128,45,22,51,285,45,06,37,273,41*77
$GPGSV,3,2,11,14,34,206,33,09,28,093,44,03,28,290,37,24,28,094,42*76
$GPGSV,3,3,11,15,26,047,32,19,18,316,21,48,35,219,39*47
$GPRMC,235651.000,A,4003.3687,N,10512.9671,W,31.78,178.54,141112,,*20
$GPGGA,235652.000,4003.3598,N,10512.9669,W,2,10,1.0,1583.5,M,-20.7,M,0.8,0000*7B
$GPGSA,A,3,22,18,21,06,14,03,09,24,19,15,,,1.9,1.0,1.7*34
$GPRMC,235652.000,A,4003.3598,N,10512.9669,W,31.76,179.56,141112,,*2A
$GPGGA,235653.000,4003.3510,N,10512.9670,W,2,10,1.0,1583.7,M,-20.7,M,0.8,0000*70
$GPGSA,A,3,22,18,21,06,14,03,09,24,19,15,,,1.9,1.0,1.7*34
$GPRMC,235653.000,A,4003.3510,N,10512.9670,W,31.35,180.75,141112,,*23
$GPGGA,235654.000,4003.3424,N,10512.9673,W,2,10,1.0,1583.8,M,-20.7,M,0.8,0000*7D
$GPGSA,A,3,22,18,21,06,14,03,09,24,19,15,,,1.9,1.0,1.7*34
$GPRMC,235654.000,A,4003.3424,N,10512.9673,W,30.95,182.90,141112,,*23
$GPGGA,235655.000,4003.3339,N,10512.9682,W,2,10,1.0,1584.0,M,-20.7,M,0.8,0000*76
$GPGSA,A,3,22,18,21,06,14,03,09,24,19,15,,,1.9,1.0,1.7*34
$GPRMC,235655.000,A,4003.3339,N,10512.9682,W,30.06,185.89,141112,,*22
$GPGGA,235656.000,4003.3256,N,10512.9695,W,2,10,1.0,1584.1,M,-20.7,M,1.8,0000*7B
$GPGSA,A,3,22,18,21,06,14,03,09,24,19,15,,,1.9,1.0,1.7*34
$GPGSV,3,1,11,18,71,017,46,21,62,128,46,22,51,285,45,06,37,273,41*75
$GPGSV,3,2,11,14,34,206,33,09,28,093,42,03,28,290,40,24,28,094,42*70
$GPGSV,3,3,11,15,26,047,32,19,18,316,34,48,35,219,30*4A
$GPRMC,235656.000,A,4003.3256,N,10512.9695,W,30.01,188.31,141112,,*26
$GPGGA,235657.000,4003.3175,N,10512.9710,W,2,10,1.0,1584.3,M,-20.7,M,2.8,0000*75
$GPGSA,A,3,22,18,21,06,14,03,09,24,19,15,,,1.9,1.0,1.7*34
$GPRMC,235657.000,A,4003.3175,N,10512.9710,W,29.88,187.14,141112,,*28
$GPGGA,235658.000,4003.3094,N,10512.9720,W,2,10,1.0,1584.4,M,-20.7,M,3.8,0000*71
$GPGSA,A,3,22,18,21,06,14,03,09,24,19,15,,,1.9,1.0,1.7*34
$GPRMC,235658.000,A,4003.3094,N,10512.9720,W,29.77,184.49,141112,,*21
$GPGGA,235659.000,4003.3011,N,10512.9726,W,2,10,1.0,1584.5,M,-20.7,M,0.8,0000*79
$GPGSA,A,3,22,18,21,06,14,03,09,24,19,15,,,1.9,1.0,1.7*34
$GPRMC,235659.000,A,4003.3011,N,10512.9726,W,29.45,181.62,141112,,*26
$GPGGA,235700.000,4003.2929,N,10512.9726,W,2,10,1.0,1584.8,M,-20.7,M,0.8,0000*7A
$GPGSA,A,3,22,18,21,06,14,03,09,24,19,15,,,1.9,1.0,1.7*34
$GPRMC,235700.000,A,4003.2929,N,10512.9726,W,29.35,178.97,141112,,*23
$GPGGA,235701.000,4003.2847,N,10512.9721,W,2,10,1.0,1585.0,M,-20.7,M,0.8,0000*7C
$GPGSA,A,3,22,18,21,06,14,03,09,24,19,15,,,1.9,1.0,1.7*34
$GPGSV,3,1,11,18,71,017,47,21,62,128,46,22,51,285,46,06,37,273,41*77
$GPGSV,3,2,11,14,34,206,33,09,28,093,43,03,28,290,40,24,28,094,42*71
$GPGSV,3,3,11,15,26,047,30,19,18,316,28,48,35,219,38*4D
$GPRMC,235701.000,A,4003.2847,N,10512.9721,W,29.69,175.42,141112,,*20
$GPGGA,235702.000,4003.2765,N,10512.9709,W,2,10,1.0,1585.2,M,-20.7,M,1.8,0000*79
$GPGSA,A,3,22,18,21,06,14,03,09,24,19,15,,,1.9,1.0,1.7*34
$GPRMC,235702.000,A,4003.2765,N,10512.9709,W,30.11,172.59,141112,,*2C
$GPGGA,235703.000,4003.2681,N,10512.9695,W,2,10,1.0,1585.4,M,-20.7,M,2.8,0000*72
$GPGSA,A,3,22,18,21,06,14,03,09,24,19,15,,,1.9,1.0,1.7*34
$GPRMC,235703.000,A,4003.2681,N,10512.9695,W,30.43,173.13,141112,,*2A
$GPGGA,235704.000,4003.2596,N,10512.9684,W,2,09,1.1,1585.7,M,-20.7,M,3.8,0000*7B
$GPGSA,A,3,22,18,21,06,14,03,09,24,19,,,,2.0,1.1,1.7*3B
$GPRMC,235704.000,A,4003.2596,N,10512.9684,W,30.40,175.26,141112,,*2B
$GPGGA,235705.000,4003.2512,N,10512.9677,W,2,09,1.1,1585.9,M,-20.7,M,0.8,0000*77
$GPGSA,A,3,22,18,21,06,14,03,09,24,19,,,,2.0,1.1,1.7*3B
$GPRMC,235705.000,A,4003.2512,N,10512.9677,W,30.42,177.23,141112,,*2F
$GPGGA,235706.000,4003.2427,N,10512.9673,W,2,10,1.0,1586.0,M,-20.7,M,0.8,0000*74
$GPGSA,A,3,22,18,21,06,14,03,09,24,19,15,,,1.9,1.0,1.7*34
$GPGSV,3,1,11,18,71,017,47,21,62,128,45,22,51,285,46,06,37,273,41*74
$GPGSV,3,2,11,14,34,206,27,09,28,093,44,03,28,290,38,24,28,094,43*7D
$GPGSV,3,3,11,15,26,047,30,19,18,316,21,48,35,219,41*4A
$GPRMC,235706.000,A,4003.2427,N,10512.9673,W,30.87,178.56,141112,,*2B
$GPGGA,235707.000,4003.2341,N,10512.9671,W,2,10,1.0,1586.1,M,-20.7,M,0.8,0000*71
$GPGSA,A,3,22,18,21,06,14,03,09,24,19,15,,,1.9,1.0,1.7*34
$GPRMC,235707.000,A,4003.2341,N,10512.9671,W,31.03,179.73,141112,,*24
$GPGGA,235708.000,4003.2255,N,10512.9671,W,2,10,1.0,1586.2,M,-20.7,M,1.8,0000*78
$GPGSA,A,3,22,18,21,06,14,03,09,24,19,15,,,1.9,1.0,1.7*34
$GPRMC,235708.000,A,4003.2255,N,10512.9671,W,30.76,179.93,141112,,*22
$GPGGA,235709.000,4003.2169,N,10512.9671,W,2,10,1.0,1586.3,M,-20.7,M,2.8,0000*77
$GPGSA,A,3,22,18,21,06,14,03,09,24,19,15,,,1.9,1.0,1.7*34
$GPRMC,235709.000,A,4003.2169,N,10512.9671,W,30.71,180.16,141112,,*23
$GPGGA,235710.000,4003.2084,N,10512.9671,W,2,10,1.0,1586.4,M,-20.7,M,3.8,0000*7B
$GPGSA,A,3,22,18,21,06,14,03,09,24,19,15,,,1.9,1.0,1.7*34
$GPRMC,235710.000,A,4003.2084,N,10512.9671,W,30.65,179.93,141112,,*27
